Name,lat,lon
Zimmersheim,47.72079,7.38847
Yport,49.73716,0.31537
Yenne,45.7042,5.75795
Wizernes,50.7117,2.24316
Vinneuf,48.34795,3.14013
Villeurbanne,45.76601,4.8795
Villemoisson-sur-Orge,48.66632,2.33657
Villelaure,43.71075,5.43422
Villefranche-sur-Mer,43.70392,7.31088
Villeblevin,48.32446,3.08038
Villars,45.46785,4.35539
Ver-sur-Mer,49.32987,-0.53118
Verny,49.00677,6.2035
Verniolle,43.08175,1.64803
Venansault,46.68614,-1.51386
Vaudry,48.8413,-0.85309
Uxegney,48.19652,6.36971
Usson-du-Poitou,46.27803,0.52773
Urrugne,43.36243,-1.70019
Tréméven,47.89818,-3.53208
Toury,48.19397,1.93484
Tonnay-Charente,45.94395,-0.89193
Tocane-Saint-Apre,45.25354,0.49369
Thourotte,49.47591,2.8821
Thiviers,45.41763,0.92143
Téteghem,51.01859,2.44454
Tessy-sur-Vire,48.97381,-1.06087
Taradeau,43.45444,6.42729
Sussargues,43.7125,4.0031
Surgères,46.10809,-0.7514
Soultz-Haut-Rhin,47.88849,7.2286
Songeons,49.54916,1.85361
Sin-le-Noble,50.36159,3.13113
Sillé-le-Guillaume,48.18324,-0.12891
Signy-le-Petit,49.90277,4.2799
Sierck-les-Bains,49.43942,6.35816
Semoy,47.93333,1.95
Sémalens,43.5914,2.11002
Savy-Berlette,50.35249,2.56456
Sauvian,43.29308,3.2576
Satillieu,45.15041,4.6141
Sartrouville,48.9482,2.19169
Sallebœuf,44.83333,-0.4
Saint-Vincent-de-Tyrosse,43.66071,-1.30428
Saint-Varent,46.88955,-0.23243
Saint-Thibault-des-Vignes,48.87111,2.68041
Saint-Sever-Calvados,48.84035,-1.04773
Saints,48.76066,3.04645
Saint-Romain-sur-Cher,47.31877,1.39956
Saint-Rémy-sur-Durolle,45.88815,3.59257
Saint-Pryvé-Saint-Mesmin,47.88177,1.8695
Saint-Nicolas-de-Redon,47.64408,-2.06637
Saint-Nazaire-d'Aude,43.24451,2.89441
Saint-Menet,43.28997,5.50427
Saint-Maurice-la-Souterraine,46.21406,1.42995
Saint-Martin-en-Bresse,46.81725,5.06027
Saint-Loubès,44.91716,-0.42859
Saint-Just-Malmont,45.33932,4.31275
Saint-Jérôme,43.33404,5.41733
Saint-Jean-de-Moirans,45.34506,5.58536
Saint-Jacut-les-Pins,47.68543,-2.21473
Saint-Hélen,48.47084,-1.95943
Saint-Gildas-des-Bois,47.51622,-2.03659
Saint-Féliu-d'Avall,42.68168,2.73814
Sainte-Gemme-la-Plaine,46.48372,-1.1122
Saint-Denis-en-Val,47.87321,1.96601
Saint-Cosme-en-Vairais,48.27415,0.45983
Saint-Calais,47.92017,0.7438
Saint-Aubert,50.20805,3.41727
Sains-en-Amiénois,49.81716,2.31862
Sahurs,49.35863,0.94256
Rumegies,50.48877,3.35131
Roye,47.66995,6.54139
Roissy-en-Brie,48.79159,2.64747
Roches-Prémarie-Andillé,46.48451,0.36979
Richemont,49.27723,6.16372
Rians,43.60691,5.75696
Reventin-Vaugris,45.46638,4.84244
Rémelfing,49.08947,7.0882
Quiberon,47.48368,-3.11986
Quevauvillers,49.82376,2.08431
Quettehou,49.59308,-1.30352
Querrien,47.9595,-3.53705
Preignac,44.58489,-0.29522
Port-Sainte-Foy-et-Ponchapt,44.84428,0.2096
Port à Binson,49.08202,3.75989
Pont-Audemer,49.35,0.51667
Pons,45.58015,-0.54813
Pollestres,42.63799,2.86736
Pluzunet,48.64097,-3.37046
Pluguffan,47.98044,-4.17873
Plounévézel,48.29422,-3.59399
Plounéventer,48.51392,-4.21264
Plomodiern,48.18119,-4.23238
Pleumeleuc,48.18449,-1.91922
Pleumartin,46.73754,0.76592
Piégut-Pluviers,45.62288,0.68955
Péaule,47.58099,-2.35652
Pavie,43.61011,0.58871
Paris,48.85341,2.3488
Paradou,43.71699,4.78604
Ouveillan,43.28858,2.97029
Orthez,43.48834,-0.77266
Ormoy,48.57489,2.45206
Orleix,43.27945,0.12043
Offranville,49.87208,1.04817
Nostang,47.74986,-3.18749
Noisiel,48.84868,2.62435
Nogent-le-Rotrou,48.32157,0.82177
Nogentel,49.0175,3.4025
Niderviller,48.71294,7.10627
Neuilly-sur-Seine,48.8846,2.26965
Néoules,43.30844,6.00798
Munchhouse,47.8693,7.45233
Morschwiller-le-Bas,47.73615,7.26954
Morienval,49.2977,2.92078
Mont-Saint-Éloi,50.35105,2.69249
Montigny-lès-Metz,49.0956,6.15271
Mont-de-Marsan,43.89022,-0.49713
Molinet,46.46576,3.93589
Molières-sur-Cèze,44.25995,4.15855
Moirans-en-Montagne,46.43381,5.72643
Mirecourt,48.30089,6.13282
Mimbaste,43.64887,-0.97383
Mézières-en-Drouais,48.72413,1.4244
Mexy,49.50072,5.78078
Meximieux,45.90823,5.1992
Messeix,45.61702,2.54157
Merville,43.72354,1.29656
Mers-les-Bains,50.06538,1.3881
Mercurol-Veaunes,45.07437,4.89279
Maure-de-Bretagne,47.89159,-1.99248
Maule,48.91056,1.85264
Martel,44.93667,1.60851
Marly,49.06382,6.15427
Marin,46.37941,6.52559
Manthelan,47.13632,0.79319
Manduel,43.81855,4.47247
Malesherbes,48.29566,2.40935
Lucq-de-Béarn,43.28739,-0.65893
Louzy,47.01175,-0.18691
Louvigné-de-Bais,48.04829,-1.33167
Loudun,47.00788,0.08296
Lons,43.31505,-0.41105
Livet-et-Gavet,45.10782,5.93333
Liesse-Notre-Dame,49.61667,3.8
Levallois-Perret,48.89389,2.28864
Valdahon,47.15,6.35
Le Val,43.43928,6.07335
Les Salles-du-Gardon,44.20675,4.03469
Les Rousses,46.48412,6.0633
Les Arcs,43.46328,6.47876
Le Pouzin,44.75173,4.74798
Le Pertre,48.03373,-1.03735
Le Pecq,48.89317,2.10371
Le Mée-sur-Seine,48.53157,2.62829
Le Loroux-Bottereau,47.23797,-1.34963
Le Fuilet,47.28345,-1.1131
Leforest,50.43866,3.0648
Leffrinckoucke,51.03457,2.46452
Le Dorat,46.21451,1.0816
Le Chesnay,48.8222,2.12213
Le Bousquet-d'Orb,43.6925,3.16595
Le Bourget-du-Lac,45.65362,5.8549
Lattes,43.56775,3.90279
Latillé,46.61947,0.07489
La Talaudière,45.47603,4.42607
Lapte,45.18593,4.21699
La Norville,48.58243,2.2618
Lanmeur,48.64711,-3.71638
Langrune-sur-Mer,49.32346,-0.37346
Landivy,48.47963,-1.03406
Lamastre,44.98672,4.57975
La Génétouze,46.73333,-1.51667
Lafrançaise,44.1276,1.24049
La Couture,50.58212,2.7071
Abbeville,50.10521,1.83547
La Fourragère,43.30382,5.43138
La Rose,43.32889,5.42859
La Chevrolière,47.09105,-1.61119
Lachapelle-aux-Pots,49.44905,1.90228
La Biolle,45.75846,5.92866
Kerbach,49.16682,6.96549
Jouy-le-Moutier,49.01068,2.04028
Jouy-le-Châtel,48.66651,3.13036
Jasseron,46.21316,5.32579
Issé,47.62328,-1.45141
Idron,43.28935,-0.31199
Heugas,43.64201,-1.08004
Héry,47.90146,3.62868
Herbignac,47.44909,-2.31722
Herbeys,45.14012,5.79289
Herbault,47.60501,1.13934
Hénon,48.38537,-2.68304
Haulchin,50.3172,3.43599
Harfleur,49.5066,0.19827
Harbonnières,49.84958,2.66812
Hanvec,48.32754,-4.16133
Gouville-sur-Mer,49.09611,-1.57908
Gommegnies,50.27155,3.70625
Glomel,48.22288,-3.39526
Gardouch,43.39073,1.68406
Gamaches,49.98615,1.55624
Fumel,44.49898,0.96725
Frontignan,43.44775,3.75524
Frontenex,45.63335,6.31168
Forest-sur-Marque,50.63341,3.18939
Fontenay-sur-Loing,48.10365,2.77542
Fontaine-le-Bourg,49.56451,1.16391
Feyzin,45.67287,4.85894
Ferrette,47.49436,7.31372
Faulquemont,49.0491,6.59732
Ézanville,49.02794,2.36787
Étang-sur-Arroux,46.8656,4.18988
Étagnac,45.89498,0.77871
Douvrin,50.50916,2.83053
Doussard,45.77512,6.22553
Douai,50.37069,3.07922
Die,44.7536,5.37033
Darnétal,49.44533,1.15144
Dampierre-en-Burly,47.76143,2.51962
Cysoing,50.56939,3.21627
Custines,48.79127,6.14461
Crottet,46.27602,4.89388
Cran-Gevrier,45.9,6.1
Coursan,43.2337,3.05712
Couffé,47.39191,-1.29151
Condé-sur-Vesgre,48.74199,1.66069
Condé-sur-Noireau,48.84881,-0.55214
Cocheren,49.14384,6.85649
Clonas-sur-Varèze,45.41382,4.79077
Civray,46.14801,0.29513
Chênehutte-Trèves-Cunault,47.31084,-0.16042
Chaudron-en-Mauges,47.28809,-0.98547
Châtillon-en-Michaille,46.1432,5.7995
Châteauneuf-sur-Isère,45.01667,4.93333
Chasné-sur-Illet,48.24005,-1.56383
Charnay-lès-Mâcon,46.30751,4.78479
Charleval,43.71864,5.24546
Charenton-le-Pont,48.82209,2.41217
Challes-les-Eaux,45.54685,5.98098
Chadrac,45.06181,3.90261
Chabris,47.25343,1.65181
Cerelles,47.50168,0.68333
Cauterets,42.8892,-0.11412
Cauchy-à-la-Tour,50.50394,2.44606
Catenoy,49.36824,2.51054
Carhaix-Plouguer,48.27594,-3.57326
Brioude,45.29419,3.38423
Breuil-le-Vert,49.36176,2.43633
Bretignolles-sur-Mer,46.62774,-1.85675
Breteil,48.1452,-1.89864
Bracieux,47.54895,1.5412
Bournoncle-Saint-Pierre,45.34351,3.3183
Bompas,42.73099,2.93325
Bilieu,45.44809,5.54268
Biars-sur-Cère,44.92831,1.8465
Biard,46.57726,0.30554
Berteaucourt-les-Dames,50.04697,2.1575
Berstett,48.679,7.65721
Bennwihr,48.14456,7.32445
Beaumetz-lès-Loges,50.23897,2.65818
Beaucourt,47.48878,6.92214
Basse-Ham,49.38626,6.2418
Barcelonnette,44.38691,6.65179
Bapaume,50.10379,2.84966
Bailleul-Sir-Berthoult,50.33752,2.85129
Baillargues,43.66126,4.01283
Bagnères-de-Luchon,42.79079,0.59341
Auxonne,47.19255,5.38726
Aulnay-sous-Bois,48.93814,2.49402
Arthès,43.95592,2.20796
Artannes-sur-Indre,47.27451,0.60036
Arc-sur-Tille,47.34349,5.18666
Arbois,46.90311,5.77454
Amblainville,49.20443,2.12242
Allonnes,47.29339,0.02277
Allanche,45.22907,2.93449
Ahetze,43.40561,-1.57138
Marseille 03,43.30257,5.37583
Noailles,43.29604,5.37959
Saint-Tronc,43.27093,5.42285
Yzeures-sur-Creuse,46.78609,0.87166
Wimmenau,48.91217,7.42189
Widensolen,48.06377,7.48015
Wallers,50.37432,3.39188
Wahagnies,50.48665,3.03448
Voves,48.27138,1.62583
Viriat,46.25484,5.21567
Vignot,48.77418,5.60904
Vieux-Thann,47.804,7.12067
Le Vieux-Marché,48.6,-3.45
Veurey-Voroize,45.27268,5.61372
Vertaizon,45.76983,3.2865
Verlinghem,50.68291,2.99907
Verberie,49.31115,2.7321
Venizel,49.36583,3.39321
Velaines,48.6988,5.30483
Varades,47.385,-1.03039
Val-d'Isère,45.45142,6.97455
Uchaud,43.75725,4.26948
Tucquegnieux,49.3101,5.89448
Torcy,48.85064,2.65078
Thoiry,46.23762,5.98111
Souprosse,43.78867,-0.70946
Solliès-Pont,43.19009,6.04115
Silly-le-Long,49.10749,2.79226
Sillingy,45.94781,6.04415
Sessenheim,48.79652,7.98719
Septfonds,44.17831,1.61806
Seilhac,45.36709,1.7135
Schirrhein,48.80161,7.90588
Sceaux,48.77644,2.29026
Sauverny,46.31514,6.11827
Saumur,47.25931,-0.07808
Saulx-les-Chartreux,48.69062,2.26727
Sault-Brénaz,45.86132,5.39954
Sarrewerden,48.92261,7.08412
Saint-Vallier,45.17154,4.81758
Saint-Thuriau,48.01698,-2.95048
Saint-Savin,45.62776,5.30856
Saint-Sauveur,45.2022,-0.835
Saint-Rogatien,46.15061,-1.07092
Saint-Quay-Perros,48.79227,-3.44649
Saint-Pol-sur-Ternoise,50.38113,2.33407
Saint-Piat,48.54668,1.58363
Saint-Ours,45.85024,2.89163
Saint-Nicolas-de-la-Grave,44.06412,1.02252
Saint-Méloir-des-Ondes,48.6379,-1.90439
Saint-Melaine-sur-Aubance,47.3702,-0.49518
Saint-Martin-de-Belleville,45.38175,6.50519
Saint-Mars-de-Coutais,47.11266,-1.73552
Saint-Léonard,50.69058,1.62536
Saint-Léger-sur-Dheune,46.84548,4.63607
Saint-Just-Sauvage,48.55478,3.78449
Saint-Julien-de-Peyrolas,44.2882,4.56487
Saint-Jean-Pied-de-Port,43.16473,-1.23729
Saint-Jean-en-Royans,45.01968,5.29223
Saint-Jean-de-Boiseau,47.19424,-1.72485
Saint-Jean-Cap-Ferrat,43.68843,7.33361
Saint-Jean,43.66519,1.50459
Saint-Hilaire,44.53333,0.71667
Saint-Gonnery,48.12396,-2.82002
Saint-Germain-Lembron,45.45793,3.23973
Saint-Geniès-des-Mourgues,43.6978,4.0361
Saint-Gengoux-le-National,46.61476,4.66261
Saint-Genest-Lerpt,45.44347,4.33968
Saint-Gelais,46.38292,-0.38986
Saint-Eusèbe,46.71346,4.46203
Saint-Étienne-lès-Remiremont,48.02287,6.60868
Saint-Estèphe,45.2648,-0.77182
Sainte-Marie-aux-Mines,48.24649,7.18385
Sainte-Marguerite,43.26196,5.40125
Sainte-Florine,45.40519,3.31732
Sainte-Anastasie-sur-Issole,43.34266,6.12493
Saint-Crespin-sur-Moine,47.09968,-1.18651
Saint-Cast-le-Guildo,48.63039,-2.25889
Saint-Benoît-sur-Loire,47.80561,2.31274
Saint-Augustin,48.78333,3.03016
Sagy,46.60129,5.31045
Ruoms,44.45294,4.34202
Rouffach,47.95786,7.30016
Rouans,47.1854,-1.86022
Rochemaure,44.58747,4.70391
Robecq,50.59608,2.56262
Ribemont,49.7954,3.45893
Replonges,46.30098,4.88317
Remy,49.43333,2.71667
Réhon,49.49878,5.75497
Rang-du-Fliers,50.41708,1.64431
Ramonville-Saint-Agne,43.54618,1.47491
Radinghem-en-Weppes,50.61884,2.90924
Quiévrechain,50.39172,3.66815
Quemper-Guézennec,48.70421,-3.10595
Puget-sur-Argens,43.45576,6.68519
Prissé,46.3213,4.74469
Priay,46.00183,5.28684
Précieux,45.58702,4.15152
Prayssac,44.5043,1.18778
Pornichet,47.26682,-2.33794
Pontivy,48.06835,-2.96645
Pontarlier,46.90347,6.35542
Plumelec,47.83797,-2.64074
Plougastel-Daoulas,48.37368,-4.36978
Ploubezre,48.70396,-3.44849
Pleuven,47.90606,-4.04384
Plélan-le-Petit,48.43421,-2.21907
Pithiviers,48.17185,2.25185
Piriac-sur-Mer,47.37936,-2.54652
Picauville,49.3781,-1.40048
Pénestin,47.48151,-2.47558
Palaja,43.17288,2.38787
Pagny-sur-Moselle,48.98365,6.02069
Orival,49.72429,1.20512
Origny-Sainte-Benoite,49.83333,3.5
Obenheim,48.35975,7.692
Nozay,48.65921,2.24151
Novéant-sur-Moselle,49.02366,6.04795
Nouzilly,47.54499,0.74623
Neuilly-le-Réal,46.46413,3.43197
Naintré,46.76285,0.48303
Murviel-lès-Montpellier,43.60528,3.7375
Mûr-de-Bretagne,48.20077,-2.98625
Mouroux,48.82263,3.03879
Mortagne-du-Nord,50.50352,3.45352
Morée,47.90397,1.23421
Montrevault,47.26145,-1.04579
Montreuil,50.46374,1.76348
Montjoire,43.76899,1.53362
Montigny-lès-Cormeilles,48.98201,2.20035
Montaut,43.12992,-0.20056
Montataire,49.259,2.43777
Moirans,45.3314,5.55432
Méziré,47.53336,6.92072
Ménesplet,45.01677,0.10733
Megève,45.85687,6.61775
Mazet-Saint-Voy,45.04696,4.24414
Mauron,48.08181,-2.28606
Marzy,46.98125,3.09352
Marsannay-la-Côte,47.27095,4.98895
Maromme,49.47925,1.02375
Mareuil,45.45074,0.45214
Marcoussis,48.64026,2.23858
Lucé,48.43689,1.46359
Louvigny,49.15715,-0.39376
Loon-Plage,50.99647,2.2177
Longwy,49.5217,5.76192
Longny-au-Perche,48.52984,0.75239
Liévin,50.4198,2.78068
Le Temple-de-Bretagne,47.32868,-1.79143
Les Ormes,46.97211,0.60608
Les Artigues-de-Lussac,44.97182,-0.13958
Le Palais,47.3463,-3.15583
Le Monastier-sur-Gazeille,44.93333,4.0
Le Mesnil-Esnard,49.41319,1.14521
Leers,50.68217,3.24429
Le Cannet,43.57662,7.01912
Laval,48.07247,-0.77019
Laval-en-Belledonne,45.25292,5.93318
La Tourlandry,47.14375,-0.69688
Laruns,42.98826,-0.42658
Larchamp,48.36253,-0.99865
Lanmeur,47.83333,-3.71667
Lanester,47.76316,-3.3393
Lampaul-Guimiliau,48.49282,-4.04132
Lalinde,44.8368,0.73777
La Jumellière,47.27976,-0.72952
La Jarrie,46.12888,-1.00955
La Gouesnière,48.60445,-1.89516
La Ferrière,46.71392,-1.31481
La Fère,49.66286,3.36631
Avrillé,47.50663,-0.58955
Avion,50.41038,2.83053
Avallon,47.49002,3.90832
Auzat-la-Combelle,45.45224,3.31825
Aurillac,44.92539,2.43983
Aubigny-sur-Nère,47.48819,2.43895
Arudy,43.1064,-0.43333
Arpajon-sur-Cère,44.90391,2.45664
Arc-et-Senans,47.03127,5.77027
Apremont,46.75009,-1.74082
Appoigny,47.87467,3.52524
Antrain,48.46037,-1.48463
Anould,48.18526,6.94597
Angevillers,49.38815,6.0443
Angerville,48.31354,1.99935
Alençon,48.43476,0.09311
Alba-la-Romaine,44.55537,4.59846
Agon-Coutainville,49.04167,-1.575
Agneaux,49.11905,-1.1061
Ablon,49.39214,0.29584
Meudon-la-Forêt,48.78404,2.22507
Le Chapitre,43.30053,5.38433
Saint-Jean du Désert,43.29331,5.42134
La Chapelle-sur-Loire,47.25063,0.21887
Labastide-Saint-Sernin,43.73743,1.46985
Labastide-Saint-Georges,43.69962,1.84585
La Barre-de-Monts,46.88421,-2.11862
Jouy-le-Potier,47.74553,1.81115
Jouarre,48.92661,3.13168
Joigny,47.98288,3.40096
Jarny,49.15873,5.8764
Ivry-sur-Seine,48.81568,2.38487
Istres,43.51345,4.98747
Is-sur-Tille,47.5267,5.10649
Igon,43.15992,-0.23217
Hirson,49.92262,4.08259
Herblay,48.98994,2.1699
Hautmont,50.25077,3.92143
Haucourt,49.48982,5.80361
Hatten,48.90123,7.97968
Gurgy,47.86712,3.56341
Gundershoffen,48.90648,7.66096
Guéthary,43.42419,-1.60901
Guécélard,47.87626,0.12928
Grésy-sur-Isère,45.59898,6.25358
Grasse,43.65783,6.92537
Grandvilliers,49.66547,1.94088
Gleizé,45.98916,4.69708
Giberville,49.18158,-0.28386
Gétigné,47.07584,-1.24978
Frouzins,43.51482,1.32523
Frouard,48.75994,6.13036
Frontenay-Rohan-Rohan,46.25276,-0.53833
Freneuse,49.04832,1.60168
Fougères,48.35157,-1.19961
Forges-les-Eaux,49.61391,1.54449
Forcalquier,43.95927,5.77945
Fontaine-la-Guyon,48.4727,1.31417
Flesselles,50.00202,2.26119
Flavy-le-Martel,49.71299,3.1915
Fismes,49.30773,3.68607
Farébersviller,49.11898,6.86914
Fains-Véel,48.78333,5.13333
Eysines,44.88442,-0.65141
Étrépagny,49.30623,1.61139
Étrelles,48.06057,-1.19377
Étainhus,49.56648,0.31285
Estevelles,50.47653,2.90928
Entrange,49.413,6.10501
Enghien-les-Bains,48.96667,2.31667
Éguilles,43.56867,5.35575
Écoyeux,45.82221,-0.50604
Échenevex,46.30923,6.03963
Durtal,47.67247,-0.23393
Drain,47.33655,-1.20773
Donzenac,45.22731,1.524
Domalain,47.99646,-1.24136
Darvoy,47.85839,2.10033
Curgies,50.32975,3.60299
Cuffies,49.40358,3.32119
Cruas,44.65706,4.76293
Croissy-sur-Seine,48.87925,2.13836
Crémieu,45.72557,5.24911
Creissels,44.08564,3.06163
Crêches-sur-Saône,46.24475,4.78678
Couzeix,45.87645,1.23842
Couternon,47.33333,5.15
Courlay,46.77937,-0.56763
Coupvray,48.89289,2.7967
Coulonges-sur-l'Autize,46.4834,-0.59884
Corenc,45.21889,5.76497
Claye-Souilly,48.94492,2.68566
Civrieux,45.92086,4.88249
Choisey,47.06389,5.45911
Cherveux,46.41559,-0.35743
Chemaudin,47.22392,5.89419
Chauvé,47.15199,-1.98666
Châtel-Saint-Germain,49.12255,6.08006
Château-Landon,48.14721,2.69754
Charvieu-Chavagneux,45.75,5.15
Chars,49.16032,1.93669
Champ-sur-Drac,45.0694,5.73151
Champagne-sur-Seine,48.39794,2.79785
Chailles,47.5416,1.3122
Châbons,45.44282,5.42542
Chablis,47.81386,3.79835
Cérences,48.91667,-1.4347
Carpentras,44.05507,5.04813
Carignan,49.63159,5.16796
Capvern,43.1022,0.31651
Camphin-en-Pévèle,50.59561,3.26082
Camphin-en-Carembault,50.51196,2.9871
Buhl,47.92806,7.18719
Cesson,48.56204,2.60816
Carpiquet,49.18522,-0.44623
Caromb,44.11106,5.10738
Carignan-de-Bordeaux,44.8,-0.48333
Carcans,45.07852,-1.04479
Cancon,44.53602,0.62512
Cabannes,43.86015,4.95192
Buzançais,46.88877,1.4195
Briare,47.63343,2.7438
Breuschwickersheim,48.58007,7.60159
Brain-sur-Allonnes,47.30263,0.06574
Boussois,50.28907,4.04117
Bonson,45.52291,4.2127
Bonneville,46.0802,6.40726
Bonne,46.17207,6.32443
Bonnac-la-Côte,45.94146,1.28471
Bologne,48.20005,5.14209
Boissise-le-Roi,48.52479,2.56971
Bligny-lès-Beaune,46.98631,4.8262
Blaison-Gohier,47.39951,-0.37723
Blainville-Crevon,49.50395,1.29952
Blain,47.47563,-1.76449
Bièvres,48.75772,2.21881
Belley,45.75917,5.68813
Béligneux,45.86775,5.12747
Bédoin,44.12432,5.1804
Beaulieu-sous-la-Roche,46.67706,-1.61073
Beaucamps-le-Vieux,49.84642,1.78272
Bazouges-sur-le-Loir,47.68928,-0.16883
Bayonne,43.49316,-1.473
Baugy,47.08181,2.72848
Barsac,44.60777,-0.31673
Barjac,44.30841,4.34774
Barbaste,44.1693,0.28603
Le Camas,43.29469,5.39415
La Conception,43.29174,5.39391
Zutkerque,50.85303,2.06818
Vouillé,46.64101,0.16818
Voisenon,48.5717,2.6648
Vivier-au-Court,49.73326,4.82939
Villiers-le-Morhier,48.62018,1.56349
Villevaudé,48.91751,2.65228
Villepinte,43.28216,2.08702
Villeneuve-la-Guyard,48.34093,3.06176
Vieillevigne,46.97152,-1.43446
Vic-le-Comte,45.64296,3.24607
Verrières-le-Buisson,48.74565,2.26796
Vernoux-en-Vivarais,44.89577,4.64524
Vendin-le-Vieil,50.47385,2.86674
Vauréal,49.03333,2.03333
Vaudelnay,47.13744,-0.20443
Varengeville-sur-Mer,49.90475,0.99479
Vallauris,43.57803,7.05451
Urcuit,43.48546,-1.33693
Tourbes,43.44616,3.37791
Toulenne,44.55862,-0.26259
Torcy,46.76857,4.45333
Torcé,48.06174,-1.26677
Tonquédec,48.66909,-3.39743
Tinténiac,48.32908,-1.83545
Thorigny-sur-Oreuse,48.29297,3.40128
Thilouze,47.22415,0.57963
Thairé,46.07355,-1.00288
Tanneron,43.59057,6.87541
Taninges,46.10883,6.59231
Soisy-sur-École,48.47637,2.49301
Soings-en-Sologne,47.41289,1.52452
Sisteron,44.19002,5.94643
Schœneck,49.21667,6.91667
Sancé,46.33926,4.83049
Saint-Valérien,48.17805,3.09523
Saint-Trivier-de-Courtes,46.4598,5.07762
Saint-Sylvestre-Cappel,50.77625,2.55622
Saint-Savournin,43.40848,5.5269
Saint-Savin,45.13874,-0.44853
Saint-Restitut,44.32446,4.79282
Saint-Quentin-de-Baron,44.81814,-0.28714
Saint-Privat,45.13831,2.09902
Saint-Priest,44.71648,4.54627
Saint-Pierre-Quiberon,47.52072,-3.13346
Saint-Pierre-le-Moûtier,46.79277,3.11657
Saint-Pierre-Église,49.66848,-1.40358
Saint-Pierre-du-Regard,48.84286,-0.54631
Saint-Philbert-du-Peuple,47.39295,-0.04415
Saint-Paul-en-Jarez,45.48512,4.57113
Saint-Paul-en-Chablais,46.37958,6.62483
Saint-Nicolas-de-la-Taille,49.51085,0.47405
Saint-Nicolas,50.30413,2.77939
Saint-Mars-la-Brière,48.03046,0.37319
Saint-Maixant,44.57908,-0.26096
Saint-Laurent-du-Pont,45.3924,5.73312
Saint-Jouan-des-Guérets,48.5989,-1.97361
Saint-Jean-le-Vieux,46.03005,5.38798
Saint-Hilaire-lez-Cambrai,50.18419,3.41327
Saint-Georges-les-Bains,44.861,4.80924
Saint-Etienne-de-Tulmont,44.05,1.46667
Saint-Égrève,45.23313,5.68154
Sainte-Colombe,48.53047,3.25517
Sainte-Bazeille,44.53051,0.09388
Saint-Dizier,48.63773,4.94892
Saint-Cyr-sur-Menthon,46.27502,4.97246
Saint-Céré,44.85931,1.89127
Saint-Cassien,45.3571,5.54793
Saint-Brevin-les-Pins,47.24693,-2.16647
Saint-Bonnet-de-Mure,45.69042,5.02912
Saint-Aubin-le-Cloud,46.6521,-0.35384
Saint-Aubin-des-Bois,48.46549,1.35784
Saint-Amé,48.02388,6.66416
Saint-Amand-Montrond,46.72284,2.50494
Saignon,43.86308,5.42838
Sablé-sur-Sarthe,47.83765,-0.33294
Rouziers-de-Touraine,47.5172,0.64848
Rouillon,48.00629,0.13527
Rouffignac-Saint-Cernin-de-Reilhac,45.05,0.96667
Roscanvel,48.3152,-4.54937
Rimogne,49.84075,4.53941
Razès,46.03337,1.34415
Quévert,48.46391,-2.08663
Putanges-Pont-Écrepin,48.76596,-0.24528
Pujaut,44.00479,4.77466
Puiseux-en-France,49.05552,2.50035
Prahecq,46.25915,-0.34556
Portets,44.6972,-0.42459
Pont-l'Évêque,49.28912,0.19161
Pont-Évêque,45.53217,4.90922
Pont-à-Vendin,50.47358,2.88884
Pompignac,44.85115,-0.43711
Poisat,45.15852,5.76051
Plonévez-Porzay,48.12538,-4.22023
Plogastel-Saint-Germain,47.98375,-4.27186
Ploeren,47.65619,-2.86592
Pleumeur-Bodou,48.77309,-3.51735
Plaisance-du-Touch,43.56554,1.29645
Pionsat,46.10963,2.69319
Peyrestortes,42.75395,2.85102
Perrusson,47.09873,1.01438
Percy,48.91714,-1.18916
Peillac,47.71346,-2.21954
Parcé-sur-Sarthe,47.84375,-0.2014
Pancé,47.8812,-1.65911
Palinges,46.55357,4.21964
Orgon,43.79108,5.03869
Orgelet,46.52096,5.61049
Orchies,50.46667,3.23333
Nommay,47.5378,6.84219
Nomain,50.49857,3.24991
Nieppe,50.70425,2.83506
Neuville-en-Ferrain,50.74839,3.15676
Neufchâteau,48.35557,5.69602
Nesmy,46.59102,-1.40167
Nersac,45.62557,0.05098
Muttersholtz,48.26761,7.53567
Mundolsheim,48.64215,7.71378
Mouchin,50.51639,3.29627
Mouchamps,46.7808,-1.06281
Morigny-Champigny,48.44685,2.18351
Montricoux,44.07574,1.61957
Montjean-sur-Loire,47.38842,-0.85873
Montier-en-Der,48.47823,4.77073
Monteils,44.16862,1.57608
Montdidier,49.648,2.56991
Montbron,45.66726,0.50002
Montbazens,44.47807,2.2298
Montauban-de-Bretagne,48.19907,-2.04756
Montastruc-la-Conseillère,43.71982,1.59019
Montaigut,45.61499,3.44896
Miélan,43.42942,0.30785
Meylan,45.20978,5.77762
Mennecy,48.56903,2.44384
Ménestreau-en-Villette,47.69962,2.02333
Mauléon-Licharre,43.22422,-0.88717
Maubec,43.84379,5.13919
Mandeure,47.44921,6.80762
Malville,47.35996,-1.86321
Maisnil-lès-Ruitz,50.45342,2.58992
Magny-le-Désert,48.57015,-0.32732
Machecoul,46.99336,-1.82298
Luz-Saint-Sauveur,42.87229,-0.00311
Luxeuil-les-Bains,47.8171,6.365
Lucenay-lès-Aix,46.70274,3.48308
Louverné,48.1226,-0.71749
Loubert,45.91422,0.58617
Lion-sur-Mer,49.30018,-0.32157
Limetz-Villez,49.06667,1.55
Lezoux,45.82689,3.37924
Le Vigan,43.99106,3.60648
Le Vaudreuil,49.25407,1.2096
Leuville-sur-Orge,48.6173,2.26685
Les Sables-d'Olonne,46.49687,-1.7847
Les Grandes-Ventes,49.78544,1.22921
Les Angles,43.95452,4.76645
Le Redon,43.24604,5.42889
Le Poinçonnet,46.7641,1.7179
Le Luart,48.06969,0.58661
Le Fœil,48.42825,-2.91506
Launaguet,43.67818,1.45603
La Saussaye,49.25936,0.98094
La Roche-sur-Foron,46.07111,6.3045
Laroche-Saint-Cydroine,47.96801,3.48467
La Rochelle,46.16308,-1.15222
La Roche-des-Arnauds,44.56188,5.95541
Lanvallay,48.45584,-2.02815
Lanrodec,48.51692,-3.03079
Landéan,48.41296,-1.15297
Lancrans,46.12729,5.83277
La Mothe-Achard,46.61786,-1.65896
Lambesc,43.65382,5.26211
Lalevade-d'Ardèche,44.6478,4.32303
Lagor,43.39227,-0.65253
La Croix-Rouge,43.33329,5.45403
Baldersheim,47.80136,7.38078
Bagnoles-de-l'Orne,48.5572,-0.41383
Bachy,50.55079,3.25976
Avignon,43.94834,4.80892
Autry-le-Châtel,47.59886,2.602
Athis-Mons,48.70522,2.39147
Athis-de-l'Orne,48.81667,-0.5
Aspiran,43.56586,3.45031
Arveyres,44.88399,-0.284
Art-sur-Meurthe,48.6575,6.26708
Arthez-de-Béarn,43.46455,-0.61535
Artas,45.53717,5.16352
Argenteuil,48.94788,2.24744
Annet-sur-Marne,48.92669,2.71959
Annemasse,46.19439,6.23775
Amplepuis,45.9726,4.3303
Albertville,45.67452,6.39061
Ahun,46.08578,2.04489
Agonac,45.29256,0.74968
Abzac,45.01611,-0.12883
La Blancarde,43.30047,5.40563
La Capelette,43.28086,5.406
La Chapelle-Thouarault,48.12409,-1.86609
La Chapelle-sur-Crécy,48.85879,2.92597
La Chapelle-en-Serval,49.12842,2.53405
La Chapelle-de-la-Tour,45.58484,5.4636
La Buisse,45.34644,5.61435
Laboissière-en-Thelle,49.29329,2.1615
Labeuvrière,50.51915,2.56268
Juvigny-sous-Andaine,48.55194,-0.50878
Jarville-la-Malgrange,48.66697,6.20269
Jacou,43.66139,3.91222
Irmstett,48.58801,7.47837
Illzach,47.7742,7.35175
Igoville,49.3199,1.14832
Huelgoat,48.36439,-3.74614
Hochfelden,48.75738,7.56769
Herserange,49.52047,5.78994
Hénin-Beaumont,50.41359,2.96485
Haute-Rivoire,45.71559,4.39633
Guerlesquin,48.5173,-3.58895
Guebwiller,47.91667,7.2
Gresswiller,48.53542,7.43251
Gray,47.44575,5.59215
Grand-Couronne,49.35563,1.00647
Grâces,48.55604,-3.1853
Graçay,47.14371,1.84733
Gournay-sur-Marne,48.86223,2.58452
Gorze,49.05236,6.00072
Goderville,49.64566,0.36593
Ginestas,43.26824,2.87243
Gentilly,48.81294,2.3417
Fronton,43.84033,1.38852
Froges,45.27377,5.92098
Floing,49.72216,4.92947
Flize,49.69875,4.77171
Fleurie,46.19219,4.69747
Flers,48.73722,-0.57466
Fitz-James,49.39113,2.4307
Ferrière-la-Grande,50.25521,3.99288
Ferney-Voltaire,46.25858,6.11063
Étupes,47.50525,6.87075
Ermont,48.99004,2.25804
Entraygues-sur-Truyère,44.64606,2.56745
Durtol,45.79621,3.05156
Dreux,48.73649,1.36566
Dourdan,48.52772,2.01113
Doué-la-Fontaine,47.19329,-0.27633
Doue,48.86641,3.16269
Donville-les-Bains,48.84608,-1.58315
Donnemarie-Dontilly,48.47719,3.13162
Dole,47.09225,5.48966
Dives-sur-Mer,49.28176,-0.10125
Décines-Charpieu,45.76873,4.95883
Damazan,44.29053,0.27502
Cuisery,46.55696,4.99797
Cuges-les-Pins,43.27607,5.69955
Croth,48.84557,1.37861
Crécy-sur-Serre,49.69594,3.62453
Coutras,45.04067,-0.12886
Couhé,46.29982,0.18199
Cosnes,49.51964,5.7121
Clinchamps-sur-Orne,49.07857,-0.40156
Cléguérec,48.12507,-3.07124
Clamecy,47.46017,3.5194
Ciry-le-Noble,46.60607,4.29869
Cirey-sur-Vezouze,48.58093,6.94573
Chirens,45.41024,5.55634
Chevilly-Larue,48.76476,2.3503
Chauriat,45.75127,3.27895
Chatou,48.8898,2.15863
Châteauvillain,48.03655,4.91823
Chantepie,48.08818,-1.61691
Chandon,46.14925,4.21393
Chanceaux-sur-Choisille,47.47145,0.70539
Champagnier,45.11155,5.72716
Cendras,44.15,4.06667
Cébazat,45.8314,3.09992
Castelmoron-sur-Lot,44.39719,0.49485
Cadolive,43.39694,5.54526
Busnes,50.58781,2.51827
Bully,45.85113,4.58328
Brison-Saint-Innocent,45.7244,5.88895
Brioux-sur-Boutonne,46.14206,-0.22259
Brézé,47.17266,-0.06132
Brette-les-Pins,47.91158,0.33637
Bouxières-aux-Chênes,48.77215,6.26152
Bourg-de-Péage,45.03151,5.04993
Bormes-les-Mimosas,43.15169,6.3422
Boran-sur-Oise,49.16715,2.35803
Bollwiller,47.85832,7.26179
Bolbec,49.57321,0.47339
Bois-d'Arcy,48.79966,2.02325
Bize-Minervois,43.31843,2.87078
Biot,43.62852,7.0953
Bessé-sur-Braye,47.83355,0.74962
Besançon,47.24878,6.01815
Béruges,46.56715,0.20735
Benfeld,48.37062,7.5937
Beaupuy,43.64713,1.55517
Beaumont-Monteux,45.0198,4.91883
Beaumont-lès-Valence,44.86203,4.94309
Baule,47.81084,1.67259
Bar-sur-Aube,48.23315,4.7064
Barbechat,47.2775,-1.28524
Woerth,48.93953,7.74279
Wisches,48.50881,7.26814
Wiesviller,49.08095,7.16415
Watten,50.83685,2.21346
Walincourt-Selvigny,50.06667,3.33333
Vittel,48.20085,5.94843
Vitteaux,47.39732,4.5419
Villevieille,43.78795,4.09756
Villers-Saint-Paul,49.28885,2.48968
Villers-lès-Nancy,48.67333,6.15283
Villeneuve-Saint-Georges,48.73219,2.44925
Villeneuve,46.02096,4.83591
Village-Neuf,47.60682,7.56964
Vielmur-sur-Agout,43.61667,2.1
Vertou,47.16878,-1.4729
Verneuil-sur-Vienne,45.84867,1.12686
Velaine-en-Haye,48.6999,6.02754
Varrains,47.22184,-0.06403
Varetz,45.19392,1.45063
Vaiges,48.04062,-0.47549
Ustaritz,43.39991,-1.45696
Trouillas,42.61108,2.80815
Trévol,46.62924,3.30599
Toulon-sur-Arroux,46.69345,4.13869
Théza,42.63906,2.95103
Tenteling,49.12544,6.93751
Tauriac,45.04915,-0.50048
Tarbes,43.23407,0.07139
Tallende,45.6704,3.1246
Strasbourg,48.58392,7.74553
Stains,48.95,2.38333
Souppes-sur-Loing,48.18297,2.73521
Soulaire,47.57901,-0.55281
Sommières,43.78457,4.09
Soliers,49.1344,-0.29613
Serres,44.42753,5.71458
Sergy,46.25069,6.00183
Serémange-Erzange,49.32062,6.09092
Saussay,48.85571,1.40889
Sartilly,48.75239,-1.45678
Sarry,48.91852,4.40621
Santec,48.70362,-4.02748
Saméon,50.47135,3.33544
Saint-Thibéry,43.39622,3.41811
Saintry-sur-Seine,48.5964,2.49515
Saint-Raphaël,43.42332,6.7735
Saint-Prix,49.01667,2.26667
Saint-Pierre-du-Perray,48.61064,2.49429
Saint-Père-en-Retz,47.20703,-2.04497
Saint-Père-Marc-en-Poulet,48.588,-1.92403
Saint-Paul-lès-Dax,43.72566,-1.05283
Saint-Martin-de-Queyrières,44.82319,6.57901
Saint-Leu,46.7306,4.50083
Saint-Léger-lès-Domart,50.05208,2.14067
Saint-Laurent-du-Var,43.67323,7.19
Saint-Lambert-la-Potherie,47.48315,-0.67791
Saint-Germain-en-Laye,48.89643,2.0904
Saint-Georges-sur-Cher,47.32996,1.13261
Saint-Gély-du-Fesc,43.69293,3.8058
Saint-Félix-Lauragais,43.44898,1.88756
Saint-Étienne-de-Fontbellon,44.60077,4.38635
Sainte-Honorine-du-Fay,49.07775,-0.49295
Saint-Christoly-de-Blaye,45.13056,-0.50808
Saint-Aubin-Routot,49.52341,0.32602
Saint-André-sur-Orne,49.11741,-0.38227
Saint-Aigulin,45.15735,-0.00863
Rosny-sous-Bois,48.87017,2.4991
Rohan,48.06885,-2.75307
Roeschwoog,48.82676,8.03684
Roche-la-Molière,45.43088,4.3282
Rochefort-du-Gard,43.97452,4.68977
Rion-des-Landes,43.93449,-0.92388
Rambouillet,48.64374,1.82992
Quéven,47.78887,-3.41616
Quarouble,50.38634,3.62306
Pouligny-Saint-Pierre,46.68095,1.03877
Poses,49.30539,1.24353
Pontlevoy,47.39002,1.25465
Poisy,45.92142,6.06356
Plerguer,48.5269,-1.84862
Plémet,48.17713,-2.59433
Pierry,49.02024,3.94071
Pierre-de-Bresse,46.88333,5.25
Pertuis,43.69415,5.50291
Perreux,46.04004,4.12663
Payrin-Augmontel,43.5445,2.35406
Patay,48.04833,1.695
Parçay-les-Pins,47.43668,0.16312
Palavas-les-Flots,43.52974,3.93043
Pabu,48.58722,-3.13685
Ormesson-sur-Marne,48.7863,2.54471
Ollainville,48.59081,2.21936
Oignies,50.46331,2.99376
Ohlungen,48.81352,7.70225
Oberhausbergen,48.60607,7.68846
Nueil-sur-Layon,47.11811,-0.36573
Neuvy-Sautour,48.0419,3.79472
Neuvy-Pailloux,46.88486,1.86152
Neuville-Saint-Rémy,50.18618,3.22404
Neuvic-Entier,45.72272,1.61198
Neuves-Maisons,48.61811,6.10544
Nesles,50.62588,1.65641
Nemours,48.27511,2.69078
Mulhouse,47.75205,7.32866
Mortagne-sur-Gironde,45.48078,-0.78936
Moret-sur-Loing,48.37239,2.81713
Monthyon,49.00753,2.8261
Montfermeil,48.8982,2.57913
Montescot,42.60825,2.93218
Montbeton,44.01102,1.28481
Montaure,49.23417,1.08837
Mondoubleau,47.98061,0.89782
Moisselles,49.05,2.33597
Mirebeau,46.78541,0.18184
Mirambeau,45.37332,-0.57078
Minihy-Tréguier,48.77543,-3.22877
Massiac,45.25146,3.19735
Mary-sur-Marne,49.01591,3.02788
Martinvast,49.59608,-1.66434
Marsat,45.87645,3.08173
Marly-le-Roi,48.86667,2.08333
Marles-en-Brie,48.72783,2.88003
Marcilly-le-Châtel,45.6959,4.03082
Manzat,45.9616,2.9414
Manéglise,49.56578,0.25572
Maisse,48.39525,2.37902
Lunery,46.93569,2.26895
Louviers,49.21667,1.16667
Loos-en-Gohelle,50.45786,2.79215
Looberghe,50.91694,2.27439
Locmariaquer,47.56926,-2.94515
Liverdy-en-Brie,48.69987,2.77606
Linards,45.70148,1.53125
Lille,50.63297,3.05858
Ligny-le-Ribault,47.68419,1.78153
Lesparre-Médoc,45.30709,-0.93793
Les Magnils-Reigniers,46.48333,-1.21667
Les Baumettes,43.22641,5.41642
Le Rouret,43.67873,7.01521
Le Raincy,48.89916,2.52298
Le Portel,50.70559,1.57574
Le Perrier,46.82002,-1.99338
Le Péage-de-Roussillon,45.3738,4.79727
Le Mesnil-sur-Oger,48.94708,4.02263
Le Houlme,49.50972,1.03537
Le Grand-Bourg,46.16021,1.64493
Le Fousseret,43.2818,1.06585
Le Coudray,48.42115,1.50057
Le Cheylas,45.37064,5.99277
La Vaupalière,49.48789,0.9963
La Tour,46.13312,6.43109
La Roche-Maurice,48.47284,-4.204
Larmor-Baden,47.58724,-2.89723
Lanvénégen,47.99845,-3.54162
Landas,50.47269,3.30367
Lamarche,48.06967,5.78141
La Jubaudière,47.17202,-0.89215
Laguiole,44.68449,2.84705
La Grande-Motte,43.56076,4.08482
La Croix-Valmer,43.20755,6.56796
Bains-sur-Oust,47.70335,-2.07199
Ayron,46.66004,0.07501
Autrans,45.17605,5.54271
Arzon,47.54943,-2.89588
Ansouis,43.73771,5.46356
Andrésy,48.98235,2.05687
Andrest,43.31683,0.0612
Ambleny,49.38079,3.18447
Ambazac,45.95733,1.39975
Algrange,49.36276,6.05094
Aix-en-Provence,43.5283,5.44973
Ahuy,47.36944,5.02089
Achiet-le-Grand,50.13067,2.78119
Achères,48.96115,2.06882
Lyon 05,45.76106,4.82677
Marseille 10,43.27889,5.41523
Les Médecins,43.35417,5.45483
Palama,43.36566,5.44427
Verduron,43.37063,5.34513
La Boisse,45.84278,5.03639
Labaroche,48.11076,7.19244
Juigné sur Loire,47.4075,-0.4761
Joux-la-Ville,47.62241,3.86217
Itxassou,43.32959,-1.4055
Irvillac,48.37032,-4.21292
Irigny,45.67313,4.82243
Hyères,43.12038,6.12857
Houdain,50.4504,2.53777
Hœrdt,48.69763,7.78286
Hirel,48.60578,-1.80184
Hindisheim,48.46837,7.63859
Hesdin,50.37349,2.0382
Hérouville-Saint-Clair,49.21088,-0.30653
Héricy,48.44848,2.76445
Héricourt,47.57305,6.76139
Heimsbrunn,47.72669,7.22699
Guewenheim,47.75283,7.09253
Grosbreuil,46.5405,-1.61504
Grisy-Suisnes,48.68538,2.66781
Grambois,43.76233,5.5886
Gradignan,44.77362,-0.61395
Gouy-sous-Bellonne,50.31139,3.05657
Gouézec,48.16948,-3.97276
Gestel,47.80339,-3.44479
Gardonne,44.83629,0.33259
Garancières,48.82271,1.75512
Fréthun,50.91729,1.82505
Fresse-sur-Moselle,47.87589,6.78589
Foucherans,47.08094,5.45503
Fontenay-sous-Bois,48.85442,2.48268
Fontannes,45.30149,3.76366
Fleury-la-Vallée,47.86672,3.44908
Feytiat,45.81004,1.33107
Fenouillet,43.68041,1.392
Évry,48.6328,2.44049
Escoutoux,45.81942,3.56336
Erbray,47.65617,-1.31786
Épouville,49.56349,0.22373
Ennetières-en-Weppes,50.6353,2.94012
Enchenberg,49.01354,7.33868
Écuisses,46.75631,4.53845
Eckwersheim,48.68167,7.69687
Dourges,50.43636,2.98589
Donchery,49.69584,4.87417
Domagné,48.07074,-1.39214
Dolus-d'Oléron,45.91667,-1.26667
Dingé,48.3573,-1.71596
Desvres,50.66884,1.83478
Delle,47.50797,6.99975
Cunac,43.92846,2.22052
Cublac,45.14488,1.30609
Crolles,45.27724,5.87837
Crach,47.617,-3.00165
Couzon-au-Mont-d'Or,45.84436,4.82883
Corné,47.47091,-0.34992
Cormeilles-en-Parisis,48.97111,2.20491
Corbigny,47.25678,3.68285
Corbenay,47.89275,6.33047
Contes,43.81278,7.31444
Colmar,48.08078,7.35584
Clohars-Carnoët,47.79631,-3.58558
Cléder,48.66332,-4.10244
Chevreuse,48.70662,2.03329
Cheverny,47.50079,1.45951
Chenoise,48.61462,3.19459
Chelles,48.88109,2.59295
Chaumontel,49.1247,2.43237
Chatte,45.14248,5.28224
Châtillon-sur-Cluses,46.08765,6.58041
Châteauroux,46.81248,1.69362
Château-Gontier,47.82705,-0.70512
Châteaudun,48.07086,1.33783
Château-du-Loir,47.69409,0.41829
Château-d'Olonne,46.50382,-1.74097
Chappes,45.86848,3.22068
Chaource,48.05915,4.13738
Chantilly,49.19461,2.47124
Champigneulles,48.73404,6.16181
Champagné-les-Marais,46.38081,-1.12112
Chamonix-Mont-Blanc,45.92375,6.86933
Chambretaud,46.92178,-0.96559
Chambéry,45.56628,5.92079
Cers,43.32345,3.30474
Cénac,44.77977,-0.4605
Cellettes,47.52758,1.38102
Caumont,49.36642,0.89591
Castelnau-de-Guers,43.43505,3.43786
Casson,47.38647,-1.55809
Carnoules,43.30187,6.18733
Carbon-Blanc,44.89501,-0.50175
Cantenac,45.02867,-0.65443
Cairon,49.24017,-0.45046
Caderousse,44.10327,4.75672
Caden,47.63147,-2.28776
Buzet-sur-Baïse,44.25816,0.29889
Buros,43.35256,-0.30959
Burnhaupt-le-Haut,47.73162,7.14437
Bruay-la-Buissière,50.48333,2.55
Brienon-sur-Armançon,47.99009,3.61628
Bricy,47.99847,1.77937
Brest,48.39029,-4.48628
Brebières,50.33333,3.01667
Boussières,47.15866,5.90314
Bousse,49.27786,6.19672
Bourgneuf,46.16676,-1.02444
Bouloire,47.97375,0.5477
Bouaye,47.14343,-1.68902
Bort-les-Orgues,45.3998,2.49579
Bonnefamille,45.59956,5.12489
Bondy,48.9018,2.48931
Bois-Guillaume,49.4602,1.12219
Bidart,43.43698,-1.59294
Bessines,46.30207,-0.51628
Berneval-le-Grand,49.95328,1.18755
Bérat,43.37772,1.17589
Bellengreville,49.12425,-0.20961
Bellegarde-sur-Valserine,46.10787,5.82421
Bellac,46.1221,1.04927
Beausoleil,43.74311,7.4225
Beaulieu-sur-Dordogne,44.97832,1.83834
Bayeux,49.27732,-0.7039
Bassussarry,43.44658,-1.51181
Bassens,45.57555,5.939
Bargemon,43.61899,6.54957
Barbazan-Debat,43.1958,0.1206
Woustviller,49.07636,7.00487
Wittenheim,47.8109,7.32756
Wassy,48.49811,4.94775
Warluis,49.38874,2.1422
Vix,46.36431,-0.85959
Viviez,44.55678,2.21649
Vimines,45.5464,5.86523
Villey-Saint-Étienne,48.73254,5.97851
Villeveyrac,43.5009,3.60616
Villeneuve-lès-Béziers,43.31491,3.28003
Villenauxe-la-Grande,48.58333,3.55
Villefagnan,46.01344,0.07924
Vidauban,43.42721,6.43185
Vianne,44.1972,0.32056
Vert-le-Grand,48.57172,2.35777
Ver-sur-Launette,49.10495,2.68409
Vermand,49.8755,3.14959
Vaux-le-Pénil,48.52803,2.69165
Vars,45.76207,0.12402
Varilhes,43.04572,1.62813
Varangéville,48.63675,6.31875
Vallet,47.16133,-1.26715
Valentigney,47.46388,6.83168
Valence,44.10823,0.89101
Urmatt,48.52752,7.32565
Uffholtz,47.82082,7.17785
Trélazé,47.44629,-0.46652
Treffiagat,47.80351,-4.26354
Traînou,47.97353,2.10399
Tourville-sur-Odon,49.14154,-0.50128
Tourville-sur-Arques,49.85926,1.10238
Tourves,43.40803,5.92392
Tournes,49.797,4.63856
Tournefeuille,43.58872,1.31922
Tilloy-lès-Mofflaines,50.27519,2.81456
Thorigny-sur-Marne,48.88689,2.71806
Theys,45.30132,5.99848
Targon,44.73507,-0.2637
Tarascon,43.80583,4.66028
Tallard,44.462,6.05205
Taden,48.47511,-2.01976
Soultzeren,48.06394,7.10233
Souillac,44.89788,1.4738
Sézanne,48.72047,3.72339
Sèvres-Anxaumont,46.56929,0.46548
Servian,43.42721,3.30177
Sennecey-le-Grand,46.64137,4.86707
Scionzier,46.0601,6.55271
Samois-sur-Seine,48.45251,2.7504
Sammeron,48.94721,3.08333
Samadet,43.63906,-0.48659
Salagnon,45.66863,5.36325
Saint-Sulpice,49.35049,2.12314
Saint-Seurin-sur-l'Isle,45.01411,-0.00199
Saint-Sauveur-le-Vicomte,49.38547,-1.5331
Saint-Sauveur-en-Rue,45.26981,4.49512
Saint-Sauveur-de-Montagut,44.82142,4.57993
Saint-Sauvant,46.36111,0.0562
Saint-Rémy,46.76334,4.83928
Saint-Rémy-de-Maurienne,45.4,6.26667
Saint-Pouange,48.22656,4.03979
Saint-Pierre-lès-Nemours,48.26733,2.67966
Saint-Pierre-du-Mont,43.88453,-0.52185
Saint-Paul,45.7505,1.43198
Saint-Pardoux,46.5714,-0.306
Saint-Palais-sur-Mer,45.64255,-1.0881
Saint-Orens-de-Gameville,43.55182,1.53413
Saint-Maximin,49.22182,2.45359
Saint-Martin sous Mouzeuil,46.45978,-0.98822
Saint-Martin-des-Besaces,49.01091,-0.845
Saint-Martin-au-Laërt,50.75179,2.24051
Saint-Marcellin,45.14914,5.31673
Saint-Malô-du-Bois,46.92891,-0.90004
Saint-Léger-des-Bois,47.4606,-0.71017
Saint-Julien-en-Genevois,46.14434,6.08256
Saint-Julien-des-Landes,46.64058,-1.71425
Saint-Jouin-Bruneval,49.64275,0.164
Saint-Jean-de-Losne,47.10247,5.26556
Saint-Gobain,49.59572,3.3775
Saint-Germain-lès-Corbeil,48.62211,2.48775
Saint-Étienne-des-Oullières,46.06731,4.64945
Saint-Étienne-de-Baïgorry,43.17547,-1.34679
Saint-Émilion,44.89258,-0.15609
Sainte-Luce-sur-Loire,47.25508,-1.48269
Saint-Éloi,46.97342,3.22228
Sainte-Flaive-des-Loups,46.61208,-1.57978
Sainte-Cécile,46.74339,-1.11421
Saint-Didier,44.00424,5.11053
Saint-Chef,45.63585,5.36465
Saint-Aubin-en-Bray,49.42051,1.87782
Saint-André-lez-Lille,50.66667,3.05
Saint-Agrève,45.01003,4.39612
Rugles,48.82212,0.70979
Roussay,47.09011,-1.06417
Rosporden,47.96062,-3.83493
Rosny-sur-Seine,48.99808,1.6313
Roquefort-la-Bédoule,43.24883,5.59015
Rœulx,50.3,3.33333
Remouillé,47.05589,-1.37729
Redon,47.65165,-2.08421
Rantigny,49.32758,2.44244
Puy-l'Évêque,44.50482,1.1378
Pujaudran,43.59087,1.14911
Pradines,44.47893,1.40392
Port-Sainte-Marie,44.25091,0.39283
Pommeuse,48.81667,3.01667
Poey-de-Lescar,43.35072,-0.46957
Plounéour-Ménez,48.43917,-3.89159
Pleubian,48.84219,-3.13935
Plestan,48.42391,-2.44753
Plédran,48.44561,-2.7461
Plan-de-Cuques,43.34753,5.46398
Peynier,43.44837,5.64139
Périgny,48.69656,2.55537
Pellegrue,44.74335,0.07487
Payzac,45.40087,1.21739
Parigné,48.42766,-1.19323
Pargny-sur-Saulx,48.76866,4.83758
Paray-le-Monial,46.45457,4.11584
Palau-del-Vidre,42.57237,2.96106
Ourville-en-Caux,49.72854,0.6046
Origny-en-Thiérache,49.89327,4.01644
Noyant-la-Gravoyère,47.70348,-0.9573
Notre-Dame-de-Riez,46.74518,-1.90791
Nointot,49.59822,0.47674
Nivolas-Vermelle,45.55885,5.30578
Neuville-sur-Sarthe,48.076,0.19343
Neufmoutiers-en-Brie,48.76882,2.83156
Nérac,44.13597,0.33844
Mouzillon,47.14149,-1.28388
Mouvaux,50.69944,3.13429
Moulis-en-Médoc,45.0592,-0.7703
Mouguerre,43.46874,-1.41655
Montrond-les-Bains,45.64374,4.23752
Montigny,49.4596,1.00168
Montceau-les-Mines,46.66667,4.36667
Monnetier-Mornex,46.1603,6.20667
Monéteau,47.84923,3.58178
Molsheim,48.54042,7.49199
Miremont,43.37042,1.41697
Millau,44.09973,3.07848
Meythet,45.91836,6.09422
Metzeral,48.01217,7.07091
Méry-sur-Seine,48.50937,3.89129
Mayenne,48.30337,-0.61383
Marpent,50.29252,4.07936
Marolles-sur-Seine,48.38662,3.03562
Maringues,45.92164,3.33029
Malakoff,48.81999,2.29998
Maisdon-sur-Sèvre,47.09765,-1.38482
Maignelay-Montigny,49.55,2.51667
Maîche,47.2516,6.80309
Magnac-sur-Touvre,45.66559,0.23736
Lozinghem,50.51554,2.50209
Loupian,43.44952,3.61333
Longueil-Sainte-Marie,49.35723,2.71844
Longueil-Annel,49.46908,2.86464
Longjumeau,48.69307,2.29431
Logonna-Daoulas,48.32096,-4.2989
Locquirec,48.69243,-3.64554
Loches,47.12858,0.99522
Limonest,45.83702,4.77188
Levens,43.85948,7.22583
Le Thoronet,43.45174,6.30391
Les Molières,48.67306,2.06959
Les Camoins,43.30607,5.51745
Les Andelys,49.24557,1.41168
Le Revest-les-Eaux,43.17612,5.92667
Le Muy,43.4728,6.56637
Le Molay-Littry,49.24265,-0.87238
Le Louroux Béconnais,47.52148,-0.88559
Le Kremlin-Bicêtre,48.81471,2.36073
Le Bouscat,44.86488,-0.59864
Le Bar-sur-Loup,43.7,6.98333
Lavérune,43.58639,3.80611
La Tessoualle,47.00466,-0.8511
La Rochefoucauld,45.74101,0.38587
La Rivière-de-Corps,48.2884,4.01947
Lapugnoy,50.51635,2.5346
Lanvollon,48.63116,-2.98597
Languidic,47.83358,-3.15811
Landrecies,50.12499,3.69171
Landévant,47.76466,-3.12215
La Membrolle-sur-Longuenée,47.5606,-0.67337
La Madeleine,50.64603,3.07585
La Loubière,44.37118,2.66739
La Daguenière,47.41934,-0.43128
La Couture-Boussey,48.89581,1.40491
Balaruc-le-Vieux,43.4614,3.6853
Bais,48.25334,-0.36549
Bailleul,50.73592,2.73594
Bagnols-en-Forêt,43.53752,6.69814
Azé,47.85141,0.99829
Ayguesvives,43.43733,1.59771
Avrechy,49.44796,2.4271
Aubigny-en-Artois,50.35,2.58333
Aoste,45.59423,5.60712
Ancenis,47.36667,-1.16667
Alizay,49.32158,1.17854
Alignan-du-Vent,43.4702,3.34148
Agnetz,49.38118,2.38621
Abbaretz,47.55254,-1.53301
Lyon 03,45.76124,4.85184
Marseille 08,43.27083,5.3821
Marseille 11,43.2907,5.4384
Marseille Saint-Victor,43.28955,5.36845
Thiers,43.29748,5.38198
La Timone,43.28847,5.41447
La Châtre,46.58228,1.98734
La Chapelle-Réanville,49.09752,1.38209
La Chapelle-des-Marais,47.44773,-2.24161
La Bridoire,45.52504,5.74073
La Bouilladisse,43.39619,5.59307
Lablachère,44.46355,4.21439
Jussy,49.71984,3.2327
Jussey,47.82536,5.90193
Janville-sur-Juine,48.51352,2.27064
Jans,47.62116,-1.61443
Ittenheim,48.60508,7.59372
Ingersheim,48.09803,7.30308
Illkirch-Graffenstaden,48.52894,7.71523
Illats,44.59755,-0.37315
Hermanville-sur-Mer,49.28464,-0.31544
Henrichemont,47.30333,2.52458
Hélesmes,50.37036,3.35918
Guilliers,48.04271,-2.40505
Guéret,46.17185,1.87166
Grainville-la-Teinturière,49.74773,0.64048
Gonneville-la-Mallet,49.6395,0.22245
Gigean,43.50028,3.71167
Gazeran,48.63264,1.77149
Gambais,48.77351,1.67196
Friville-Escarbotin,50.08602,1.5456
Fréjus,43.43325,6.73555
Francheville,48.78647,0.84962
Fraize,48.1866,6.99787
Fraisans,47.14857,5.76051
Frahier-et-Chatebier,47.66667,6.75
Florensac,43.38417,3.46712
Flins-sur-Seine,48.96523,1.87314
Férel,47.48195,-2.34382
Évaux-les-Bains,46.17475,2.48546
Esquerdes,50.70414,2.18851
Eschau,48.48897,7.71644
Épagny,45.93584,6.08302
Entrammes,47.9993,-0.71541
Ebersheim,48.30438,7.49903
Drusenheim,48.76207,7.95326
Dorlisheim,48.52485,7.48624
Donges,47.31824,-2.07538
Dolomieu,45.6054,5.48571
Distroff,49.33295,6.26662
Dirinon,48.39805,-4.2705
Diou,46.53432,3.74453
Dettwiller,48.75415,7.46633
Damigny,48.45,0.06667
Dadonville,48.15776,2.2715
Cuisiat,46.30021,5.38809
Crusnes,49.43406,5.91557
Créteil,48.79266,2.46569
Crespières,48.88317,1.92151
Craponne,45.74526,4.72322
Cours-les-Barres,47.02513,3.03167
Courpière,45.75689,3.54216
Courcité,48.30601,-0.24984
Courcelles-lès-Lens,50.41667,3.01667
Corny-sur-Moselle,49.03557,6.06084
Cormelles-le-Royal,49.15398,-0.33062
Condé-sur-l'Escaut,50.45436,3.58884
Combs-la-Ville,48.66497,2.56957
Chiché,46.79713,-0.35969
Chens-sur-Léman,46.32459,6.27075
Châtillon-sur-Seiche,48.03448,-1.67114
Châtillon-le-Duc,47.30486,6.00792
Châtillon-Coligny,47.82266,2.84563
Châtenois,48.30286,5.83125
Châteauneuf-Grasse,43.66667,6.98333
Charmes,48.3722,6.29117
Charly,45.64887,4.79461
Charenton-du-Cher,46.73007,2.64438
Chambourg-sur-Indre,47.18159,0.96863
Chamarande,48.51715,2.2171
Cerny,48.47796,2.32815
Ceret,42.48533,2.74804
Cenon-sur-Vienne,46.77409,0.53663
Caveirac,43.82437,4.26664
Caunes-Minervois,43.32771,2.52679
Cassagnes-Bégonhès,44.16885,2.53013
Cap-d'Ail,43.72126,7.40556
Camblanes,44.76542,-0.48769
Castelnaudary,43.31814,1.95339
Camaret-sur-Mer,48.27497,-4.59615
Cabriès,43.44127,5.37884
Bussière-Galant,45.6269,1.03636
Burbure,50.53663,2.46897
Brives-Charensac,45.0478,3.92878
Brienne-le-Château,48.39319,4.52637
Brié-et-Angonnes,45.12418,5.78374
Bressuire,46.84158,-0.49042
Bray-Dunes,51.07786,2.51673
Boussac,46.34836,2.22027
Boissy-sous-Saint-Yon,48.55379,2.21212
Bois-Grenier,50.64985,2.87409
Bois-d'Amont,46.5328,6.1375
Bitschwiller-lès-Thann,47.82969,7.07911
Bischoffsheim,48.48703,7.48967
Billy-Berclau,50.51783,2.86613
Beuvrages,50.38414,3.4942
Berric,47.63244,-2.52499
Bergues,50.96882,2.43242
Bénodet,47.87531,-4.1058
Bellaing,50.36811,3.42515
Bédarrides,44.04022,4.89819
Beaurepaire,45.33658,5.04878
Beauquesne,50.08526,2.39276
Beaumont-de-Pertuis,43.73737,5.68959
Bayon,48.47425,6.31631
Barjouville,48.41002,1.47639
Weyersheim,48.71622,7.80127
Wasquehal,50.67043,3.13382
Voulx,48.28204,2.96747
Vitry-aux-Loges,47.93333,2.26667
Villiers-sur-Loir,47.80507,0.99774
Villers-Cotterêts,49.25311,3.09003
Villers-Bocage,49.9981,2.31683
Villeneuve-Tolosane,43.52316,1.34102
Villeneuve-sur-Bellot,48.86203,3.34143
Villeneuve-la-Comptal,43.28692,1.9212
Villefranche-d'Albigeois,43.89635,2.33022
Villebernier,47.25417,-0.03104
Vézelise,48.48748,6.08825
Veyrac,45.89695,1.1057
Vert-le-Petit,48.55163,2.36526
Vernègues,43.68575,5.17156
Vernantes,47.39323,0.05155
Vergèze,43.74363,4.22018
Véretz,47.35706,0.80575
Venelles,43.59859,5.47977
Vendenheim,48.66948,7.70983
Veauche,45.56326,4.29192
Vaulx-Vraucourt,50.1491,2.9083
Vaugneray,45.73791,4.65645
Valognes,49.50881,-1.47047
Valmont,49.0843,6.69781
Valensole,43.83766,5.98392
Valence-sur-Baïse,43.88222,0.38108
Upie,44.8025,4.97673
Tréon,48.67709,1.32668
Toutlemonde,47.05577,-0.76789
Tonneins,44.39476,0.31014
Tilques,50.77712,2.19948
Tignieu,45.75164,5.18911
Tigery,48.64257,2.50779
Tassin-la-Demi-Lune,45.75499,4.78812
Sundhoffen,48.04263,7.4132
Souvigny,46.5348,3.19205
Soulaines-sur-Aubance,47.3643,-0.5229
Sotteville-lès-Rouen,49.40972,1.09005
Sorigny,47.24329,0.6952
Sonnay,45.35809,4.90479
Soignolles-en-Brie,48.6535,2.69968
Sevrier,45.86442,6.1399
Seurre,46.99923,5.15138
Servon,48.71662,2.58737
Sentheim,47.7556,7.05305
Senlis,49.20724,2.58661
Seillans,43.63623,6.64332
Sedan,49.70187,4.94028
Scorbé-Clairvaux,46.81303,0.41344
Schnersheim,48.65741,7.56701
Savigné,46.15911,0.32094
Saverne,48.74164,7.36221
Sauveterre-de-Béarn,43.3993,-0.94011
Sault,44.08968,5.40836
Sars-Poteries,50.16928,4.02676
Sarlat-la-Canéda,44.88902,1.21656
Sansac-de-Marmiesse,44.88376,2.34768
Salies-du-Salat,43.10224,0.958
Saleilles,42.65436,2.95168
Saint-Victurnien,45.8777,1.01301
Saint-Vérand,45.17344,5.33261
Saint-Symphorien-sur-Coise,45.6322,4.45709
Saint-Senier-sous-Avranches,48.68399,-1.33126
Saint-Sébastien-sur-Loire,47.20768,-1.50332
Saint-Sauveur-sur-École,48.4975,2.54711
Saint-Quentin-sur-le-Homme,48.64751,-1.31806
Saint-Pierre-Montlimart,47.26976,-1.02738
Saint-Pierre-du-Chemin,46.69548,-0.70168
Saint-Pierre-d'Oléron,45.94374,-1.3059
Saint-Pierre-de-Bœuf,45.38372,4.74601
Saint-Paul-de-Varax,46.09692,5.12959
Saint-Ouen-des-Alleux,48.32824,-1.42562
Saint-Maur,46.80657,1.63904
Saint-Martin-Longueau,49.34281,2.60276
Saint-Martin-le-Vinoux,45.20297,5.7163
Saint-Martin-en-Haut,45.65984,4.5618
Saint-Martin-des-Champs,48.66841,-1.33393
Saint-Martin-de-Fontenay,49.11523,-0.37391
Saint-Marcel-lès-Valence,44.97132,4.95316
Saint-Lubin-des-Joncherets,48.76667,1.21667
Saint-Laurent-de-la-Salanque,42.77399,2.99041
Saint-Just-Saint-Rambert,45.49973,4.24141
Saint-Julien-les-Villas,48.27127,4.09901
Saint-Jean-sur-Veyle,46.25902,4.91712
Saint-Jean-de-Niost,45.83333,5.21667
Saint-Hippolyte,48.23156,7.37121
Saint-Hilaire-de-Loulay,47.0019,-1.33079
Saint-Georges-de-Mons,45.93941,2.83866
Saint-Genès-Champanelle,45.72037,3.01883
Saint-Florent-sur-Auzonnet,44.24166,4.11151
Saint-Étienne-sur-Chalaronne,46.14778,4.87129
Sainte-Livrade-sur-Lot,44.39824,0.58931
Sainte-Hélène,44.96542,-0.88423
Saint-Dié-des-Vosges,48.28429,6.94921
Saint-Clair-du-Rhône,45.44186,4.77123
Saint-Chéron,48.55433,2.12403
Saint-Brice,45.68832,-0.27697
Saint-Aubin-lès-Elbeuf,49.3036,1.01056
Saint-Antoine-du-Rocher,47.49677,0.62997
Saint-André-de-la-Roche,43.73333,7.28333
Saint-Amand-les-Eaux,50.44718,3.43076
Ruelisheim,47.82405,7.35744
Rouen,49.44313,1.09932
Rosières-en-Santerre,49.81433,2.70095
Rosières,45.13287,3.98826
Roncherolles-sur-le-Vivier,49.46667,1.18333
Romanèche-Thorins,46.18402,4.74242
Romagnieu,45.57061,5.64096
Roisel,49.94768,3.09973
Riorges,46.04378,4.04255
Rennes,48.11198,-1.67429
Renaison,46.04955,3.9244
Reichshoffen,48.93287,7.66561
Ramatuelle,43.21599,6.61156
Puisserguier,43.36798,3.04069
Provin,50.5143,2.90794
Prades,42.61755,2.42177
Poullan-sur-Mer,48.08064,-4.41412
Pouldreuzic,47.9549,-4.36049
Potigny,48.96925,-0.24166
Port-Saint-Père,47.13354,-1.74911
Pontvallain,47.75086,0.19193
Pont-Saint-Vincent,48.60519,6.0985
Pontpoint,49.3,2.65
Pont-Hébert,49.16714,-1.13428
Pont-à-Mousson,48.90702,6.05635
Poncin,46.08531,5.4112
Pluvigner,47.77524,-3.01049
Plouha,48.6761,-2.92795
Plouguenast,48.28136,-2.70464
Plougonven,48.52124,-3.7129
Pleugriffet,47.98705,-2.68538
Pierrefort,44.92175,2.83811
Pierrefitte-sur-Seine,48.96691,2.36104
Pierrefitte-Nestalas,42.96106,-0.07385
Pierre-Châtel,44.95735,5.77454
Phalempin,50.51691,3.01584
Petite-Rosselle,49.21177,6.85607
Peille,43.80296,7.40191
Ostwald,48.54369,7.71099
Orval,46.72581,2.47144
Ornex,46.2727,6.09982
Orgerus,48.83851,1.70132
Oraison,43.91726,5.91836
Oloron-Sainte-Marie,43.19441,-0.61069
Oinville-sur-Montcient,49.02722,1.84928
Nousty,43.2668,-0.21097
Notre-Dame-de-Mésage,45.06241,5.7588
Noisy-le-Grand,48.84979,2.56266
Nogent-le-Roi,48.64785,1.52933
Nîmes,43.83665,4.35788
Nice,43.70313,7.26608
Neuville-sur-Oise,49.01667,2.06667
Neulise,45.89811,4.18134
Neuillé-Pont-Pierre,47.5484,0.54962
Neufgrange,49.07679,7.06526
Neufchâtel-Hardelot,50.62018,1.64223
Nesles-la-Vallée,49.13202,2.17099
Narbonne,43.18396,3.00141
Nantua,46.15343,5.60601
Moûtiers,45.48459,6.53146
Mortcerf,48.78879,2.91692
Montreuil-sur-Ille,48.30758,-1.66905
Montmarault,46.31738,2.95472
Montjoie-en-Couserans,43.0025,1.16
Montgeron,48.70543,2.45039
Montenois,47.49222,6.66561
Montalieu,45.81245,5.40221
Montaigut-sur-Save,43.68947,1.23133
Montagnat,46.16761,5.28791
Monnières,47.1319,-1.35648
Mios,44.6056,-0.93721
Mézy-sur-Seine,49.0,1.88333
Meyrueis,44.17865,3.42916
Messimy,45.69816,4.67429
Mertzwiller,48.86558,7.68136
Méreau,47.16295,2.05086
Melle,46.22395,-0.14348
Meistratzheim,48.44853,7.5435
Masseube,43.42965,0.57888
Masny,50.34797,3.20165
Marly-la-Ville,49.08201,2.50347
Marly,50.34556,3.54959
Marigny-Brizay,46.7466,0.37658
Mareuil-sur-Ourcq,49.13752,3.07822
Marcorignan,43.22594,2.92209
Marange-Silvange,49.20822,6.10426
Malemort-du-Comtat,44.02096,5.15961
Magenta,49.04899,3.96882
Maffliers,49.07758,2.30768
Mably,46.06484,4.06014
Lussac,44.95024,-0.09606
Lunel-Viel,43.6789,4.0925
Losne,47.0985,5.26216
Livinhac-le-Haut,44.59212,2.23117
Lillebonne,49.5203,0.53617
Ligugé,46.51984,0.32665
Hôpital-Camfrout,48.32854,-4.24185
Le Vieil-Baugé,47.53193,-0.11888
L'Étang-la-Ville,48.86954,2.05732
Les Peintures,45.06899,-0.09752
Les Loges,49.6986,0.28403
Les Clouzeaux,46.63035,-1.5094
Le Relecq-Kerhuon,48.40817,-4.39676
Le Plessis-Brion,49.46419,2.89096
Le Perréon,46.06316,4.60045
Léon,43.87752,-1.30309
Le Monastère,44.34165,2.57956
Le Gua,45.01667,5.61667
Le Drennec,48.5344,-4.37243
Lecelles,50.46779,3.40096
Le Breil-sur-Mérize,48.00778,0.47669
Le Boulou,42.52424,2.83336
La Verrière,48.752,1.94649
Latresne,44.78517,-0.49663
La Tremblade,45.7699,-1.14232
La Tranche-sur-Mer,46.343,-1.437
La Tour-en-Jarez,45.48347,4.39064
Lanouée,48.00218,-2.58224
Descartes,46.96667,0.7
La Guerche-de-Bretagne,47.94166,-1.2309
La Gorgue,50.6379,2.71502
La Francheville,49.72923,4.71273
La Flèche,47.69815,-0.07553
La Feuillie,49.46415,1.51463
La Ferté-Milon,49.17453,3.12885
Ablain-Saint-Nazaire,50.3932,2.7088
Saint-Mitre,43.3464,5.42274
Saint-Quentin-en-Yvelines,48.77186,2.01891
La Joliette,43.30496,5.36608
Notre-Dame du Mont,43.29293,5.38203
La Chapelle-Saint-Laurent,46.74612,-0.47665
La Chapelle-des-Fougeretz,48.17732,-1.7318
La Bourboule,45.58829,2.7392
La Bégude-de-Mazenc,44.54298,4.93403
Jebsheim,48.12375,7.47578
Hœnheim,48.62224,7.75549
Herrlisheim-près-Colmar,48.01835,7.32668
Groissiat,46.22213,5.60775
Gries,48.7537,7.81403
Grenay,45.66347,5.08031
Granges-sur-Vologne,48.14517,6.79095
Gontaud-de-Nogaret,44.45,0.3
Gonfaron,43.32036,6.28929
Goetzenbruck,48.97778,7.3796
Gières,45.17997,5.78935
Ger,43.25296,-0.05201
Gelles,45.76947,2.76309
Gabarret,43.98583,0.01072
Fresnes,48.75568,2.32241
Fresnay-sur-Sarthe,48.28171,0.02148
Foug,48.68385,5.78735
Fontaines-Saint-Martin,45.8442,4.85305
Fleury-Mérogis,48.6373,2.36378
Faverney,47.76713,6.10428
Falicon,43.74861,7.27856
Ergué-Gabéric,47.99657,-4.02438
Druelle,44.36006,2.50505
Dreuil-lès-Amiens,49.91483,2.22893
Drémil-Lafage,43.59624,1.60117
Doudeville,49.72268,0.78479
Dompierre-sur-Besbre,46.52214,3.68106
Domme,44.80218,1.21459
Divion,50.47169,2.50546
Derval,47.66772,-1.67176
Davézieux,45.2552,4.70744
Daumeray,47.70055,-0.36055
Damelevières,48.5593,6.38453
Dainville,50.28097,2.72603
Cuincy,50.37933,3.05301
Crosne,48.71921,2.45728
Coussac-Bonneval,45.51117,1.32382
Coulommiers,48.81451,3.08498
Coubron,48.91667,2.58333
Corseul,48.48155,-2.16979
Corbreuse,48.50065,1.95913
Conlie,48.12261,-0.01666
Collonges,46.13819,5.90506
Coignières,48.7501,1.92082
Clouange,49.2624,6.09723
Cintré,48.10569,-1.87153
Chindrieux,45.81948,5.85024
Chevanceaux,45.30437,-0.23312
Chépy,50.06361,1.64694
Cheny,47.95166,3.5334
Chaumont,48.11121,5.14134
Châtillon-sur-Seine,47.85851,4.57375
Châtillon,45.87729,4.64574
Châtillon,48.8024,2.29346
Châtenoy-le-Royal,46.79797,4.8119
Châteauneuf-les-Martigues,43.38383,5.16403
Chassagny,45.6067,4.73214
Chartres-de-Bretagne,48.03975,-1.70543
Chancelade,45.20554,0.66547
Champenoux,48.74257,6.3483
Chamberet,45.58345,1.7198
Chalabre,42.98401,2.00611
Certines,46.13244,5.26525
Cérons,44.63122,-0.33701
Cazères-sur-l'Adour,43.76088,-0.31702
Cattenom,49.40627,6.24297
Carquefou,47.29722,-1.4921
Cambrai,50.17596,3.23472
Cambes,44.7319,-0.46292
Callas,43.59284,6.5384
Cabasse,43.42646,6.21917
Burlats,43.63641,2.31818
Bruyères-et-Montbérault,49.52535,3.66369
Broût-Vernet,46.18756,3.27324
Brinon-sur-Sauldre,47.566,2.25647
Briey,49.2492,5.93975
Bricquebec,49.47008,-1.63254
Bretteville,49.6544,-1.52884
Breteuil,49.63357,2.29509
Brandérion,47.79384,-3.19449
Bouvesse-Quirieu,45.7931,5.41496
Boeil-Bezing,43.22154,-0.2667
Blénod-lès-Pont-à-Mousson,48.88487,6.04844
Billom,45.72267,3.33869
Beuvillers,49.12961,0.25492
Bertry,50.08718,3.44298
Berrien,48.40342,-3.7518
Bernaville,50.13232,2.163
Belleville-sur-Meuse,49.17863,5.3719
Beauval,50.10789,2.33269
Beaulieu-sur-Mer,43.70692,7.33135
Baziège,43.45494,1.61386
Bavans,47.48528,6.73324
Barbâtre,46.94359,-2.17981
Bain-de-Bretagne,47.84687,-1.68579
Bailly-Romainvilliers,48.84729,2.82352
Ayse,46.08135,6.4455
Avrillé,46.46921,-1.4927
Avanton,46.66295,0.30327
Auxy,46.9494,4.4044
Auxi-le-Château,50.23101,2.11593
Auvillar,44.06946,0.89965
Autun,46.95104,4.29869
Aubais,43.75524,4.14733
Artenay,48.08246,1.88098
Ars-sur-Moselle,49.07791,6.0742
Arques-la-Bataille,49.88122,1.12875
Argentan,48.74441,-0.02023
Arenthon,46.10697,6.33316
Archigny,46.67323,0.65218
Annoeullin,50.52925,2.9318
Andard,47.45659,-0.39752
Ancy-le-Franc,47.77586,4.16361
Ampuis,45.48925,4.81001
Aiton,45.56123,6.25955
Wittelsheim,47.80947,7.24154
Willerwald,49.02481,7.03726
Wassigny,50.01334,3.59988
Volx,43.87787,5.84148
Voisins-le-Bretonneux,48.75793,2.05137
Vitry-sur-Seine,48.78716,2.40332
Viroflay,48.80078,2.16181
Vinon-sur-Verdon,43.72484,5.81168
Vinça,42.64456,2.52784
Villevêque,47.56095,-0.42383
Villers-sur-Mer,49.32264,0.00027
Villeneuve-la-Rivière,42.69376,2.8014
Villefranque,43.43742,-1.45289
Vieux-Condé,50.45944,3.56738
Vieille-Toulouse,43.52366,1.4423
Vibraye,48.05963,0.7353
Vervins,49.8351,3.90925
Vernioz,45.42672,4.88267
Verdun-sur-Garonne,43.85446,1.23425
Vasles,46.57569,-0.02519
Vanves,48.82345,2.29025
Valleroy,49.20944,5.93703
Vailhauquès,43.67204,3.71828
Ussac,45.19389,1.51337
Trieux,49.32462,5.93049
Tresses,44.8488,-0.4638
Trept,45.68742,5.31843
Treize-Septiers,46.985,-1.23029
Toulaud,44.89773,4.81639
Thérouanne,50.63695,2.25838
Théoule-sur-Mer,43.5078,6.9408
Segonzac,45.61807,-0.21986
Scey-sur-Saône-et-Saint-Albin,47.66398,5.97451
Satolas-et-Bonce,45.69368,5.13032
Sanvignes-les-Mines,46.66444,4.29188
Sancoins,46.83314,2.92238
Saint-Selve,44.67087,-0.48077
Saint-Rémy-en-Rollat,46.1833,3.39106
Saint-Paul-en-Pareds,46.82381,-0.98644
Saint-Ouen,50.03819,2.12088
Saint-Nicolas-de-Bourgueil,47.28493,0.12727
Saint-Maurice-de-Lignon,45.2243,4.1388
Saint-Maurice-de-Gourdans,45.82248,5.1945
Saint-Martin-de-Crau,43.63955,4.8127
Saint-Marcellin-en-Forez,45.49676,4.17233
Saint-Lumine-de-Coutais,47.05471,-1.7269
Saint-Léger-de-Montbrun,47.0,-0.13333
Saint-Julien-en-Born,44.06287,-1.22579
Saint-Julien-Chapteuil,45.03486,4.0611
Saint-Jean-de-Monts,46.79313,-2.06076
Saint-Hilaire-de-Clisson,47.06197,-1.30946
Saint-Henri,43.36151,5.33069
Saint-Germain-Laprade,45.03862,3.97004
Saint-Genis-Pouilly,46.24356,6.02119
Saint-Genis-de-Saintonge,45.48219,-0.56832
Saint-Fort,47.79928,-0.72095
Saint-Florentin,48.00057,3.72489
Saintes,45.74742,-0.63489
Saint-Épain,47.14482,0.53668
Sainte-Colombe-en-Bruilhois,44.17806,0.51527
Saint-Denis-la-Chevasse,46.82254,-1.35877
Saint-Crépin-Ibouvillers,49.26283,2.07793
Saint-Christophe-sur-le-Nais,47.6172,0.47801
Saint-Cannat,43.62132,5.2981
Saint-Béron,45.50308,5.7279
Saint-Benin-d'Azy,46.99914,3.39267
Saint-Beauzire,45.84964,3.17947
Saint-Aulaye,45.20292,0.13509
Saint-Aubin-des-Châteaux,47.72024,-1.48654
Saint-Amand,49.04338,-0.96491
Saffré,47.50145,-1.57882
Saclay,48.7326,2.16923
Royat,45.76497,3.05013
Romagnat,45.72955,3.10061
Rochefort,45.94304,-0.96774
Rivesaltes,42.76929,2.87378
Rhinau,48.32017,7.70527
Ressons-sur-Matz,49.53858,2.74416
Reignac,45.23415,-0.50751
Reichstett,48.64856,7.75455
Ramonchamp,47.89429,6.74171
Quincié-en-Beaujolais,46.11898,4.61635
Quelaines-Saint-Gault,47.93333,-0.8
Puichéric,43.22405,2.62404
Pouzac,43.08606,0.13444
Pouru-Saint-Remy,49.68333,5.08333
Pouilly-sur-Loire,47.28377,2.95442
Port-Brillet,48.11283,-0.97179
Pontoise,49.05,2.1
Plougasnou,48.69597,-3.79179
Plouédern,48.48442,-4.24551
Pipriac,47.80837,-1.94782
Picquigny,49.94413,2.14376
Oyonnax,46.25917,5.65727
Oye-Plage,50.97713,2.04276
Othis,49.07387,2.67502
Olonzac,43.28383,2.7303
Oeyreluy,43.67159,-1.08042
Obernai,48.46313,7.481
Oberhoffen-sur-Moder,48.78366,7.86347
Noyers-sur-Cher,47.27701,1.4032
Noves,43.87736,4.90248
Nortkerque,50.87519,2.02464
Nomexy,48.30741,6.38572
Noiseau,48.77589,2.54892
Niort,46.32313,-0.45877
Niederbronn-les-Bains,48.95165,7.64271
Neydens,46.12162,6.10436
Nesles-la-Montagne,49.01964,3.42607
Nesle,49.75888,2.91133
Mouleydier,44.85537,0.59513
Mortagne-sur-Sèvre,46.99209,-0.95291
Mornas,44.20242,4.72763
Morainvilliers,48.92902,1.93621
Montfaucon,47.23562,6.08162
Montebourg,49.48774,-1.38036
Montbonnot-Saint-Martin,45.22537,5.8017
Monein,43.32049,-0.57975
Mondelange,49.26145,6.16503
Monchy-Saint-Éloi,49.29042,2.46739
Miribel-les-Échelles,45.43155,5.7081
Mirebeau-sur-Bèze,47.39828,5.32093
Milizac,48.46698,-4.56675
Milhaud,43.78986,4.30737
Meyzieu,45.76637,5.00277
Meslay-du-Maine,47.9514,-0.55583
Meillonnas,46.24367,5.35019
Mazamet,43.49275,2.3736
Mathay,47.43905,6.78487
Massay,47.15324,1.99334
Marzan,47.54104,-2.32416
Martignas-sur-Jalle,44.84513,-0.78296
Maroilles,50.13508,3.76132
Marigny-le-Châtel,48.40291,3.73588
Marguerittes,43.8596,4.44517
Maretz,50.0453,3.41808
Malaunay,49.5271,1.04292
Maillezais,46.37229,-0.73914
Magny-Vernois,47.66997,6.47545
Lusigny-sur-Barse,48.25451,4.26891
Lurcy-Lévis,46.72981,2.93829
Luray,48.72035,1.39889
Lorgies,50.5688,2.79034
Livry-sur-Seine,48.51771,2.67879
Limay,48.99553,1.74081
Lieu-Saint-Amand,50.27318,3.34624
Lewarde,50.34173,3.16782
Viviers-du-Lac,45.65,5.9
Lévis-Saint-Nom,48.71667,1.95
Leudeville,48.56591,2.32676
Le Trait,49.46895,0.81634
Le Teich,44.63389,-1.02437
Lestrem,50.61987,2.68646
Les Herbiers,46.87095,-1.0156
Le Russey,47.16055,6.72912
Le Pré-Saint-Gervais,48.88549,2.40422
Le Plessis-Pâté,48.61078,2.32318
Le Plessis-Bouchard,49.0,2.23333
Le Plessis-Belleville,49.09501,2.75614
Le Pin,46.86281,-0.6551
Le Monêtier-les-Bains,44.97604,6.50898
Le Mesnil-Saint-Denis,48.74485,1.95594
Le Gâvre,47.52061,-1.74815
Le Bourgneuf-la-Forêt,48.16418,-0.97064
Le Boupère,46.7957,-0.92641
Le Beausset,43.19822,5.80267
La Ville-aux-Dames,47.39551,0.76837
Laventie,50.62818,2.77076
Lavelanet,42.93267,1.84844
Lassigny,49.58828,2.84289
La Salvetat-Saint-Gilles,43.57622,1.27192
Laroque,43.92249,3.72436
La Roche-de-Glun,45.01336,4.84488
Laneuveville-devant-Nancy,48.65659,6.22658
Landéda,48.58717,-4.57224
La Mailleraye-sur-Seine,49.48308,0.7703
Laiz,46.25054,4.88955
Lagord,46.18915,-1.15387
La Gaubretière,46.94275,-1.06482
La Fresnais,48.59555,-1.84333
Lacroix-Saint-Ouen,49.35685,2.78803
Les Deux Alpes,45.0116,6.12548
Castelmaurou,43.67778,1.53222
Marseille Bompard,43.2812,5.36081
Les Accates,43.29989,5.49726
Borel,43.36486,5.36681
La Chartre-sur-le-Loir,47.72944,0.57383
La Chapelle-Heulin,47.1768,-1.3407
La Boissière-de-Montaigu,46.95078,-1.19177
Killem,50.95779,2.56068
Juvigné,48.22992,-1.03522
Jurançon,43.2883,-0.38694
Jouy-en-Josas,48.75909,2.16966
Joué-lès-Tours,47.34907,0.66513
Jonage,45.79638,5.04664
Javené,48.3196,-1.21646
Jaujac,44.63695,4.25638
Jarnac,45.6816,-0.17329
Isbergues,50.62328,2.45902
Hochstatt,47.70389,7.2765
Hem,50.65256,3.18681
Hégenheim,47.56299,7.52401
Hauville,49.39645,0.77232
Hauterives,45.25565,5.01904
Haubourdin,50.60826,2.99143
Guégon,47.93788,-2.56491
Gournay-en-Bray,49.48285,1.72471
Gémenos,43.29751,5.62843
Gasville-Oisème,48.46973,1.53843
Garlin,43.56079,-0.27182
Garat,45.62642,0.26265
Frontonas,45.64487,5.19701
Fronsac,44.92402,-0.27226
Frelinghien,50.71667,2.93333
Fourques,43.6945,4.60932
Fouras,45.98839,-1.09336
Fouillard,48.1582,-1.57915
Fontoy,49.35597,5.9925
Fontenay-le-Fleury,48.81253,2.04863
Florac,44.32626,3.59276
Flaviac,44.74777,4.67434
Figanières,43.56882,6.49722
Fégréac,47.58464,-2.04458
Fayl-Billot,47.78199,5.59917
Euville,48.7503,5.62603
Eulmont,48.75026,6.22731
Esnandes,46.24992,-1.1159
Esbly,48.9052,2.81235
Ercé-en-Lamée,47.83003,-1.56027
Épieds-en-Beauce,47.95066,1.61732
Ennezat,45.89772,3.22348
Écouen,49.02062,2.38309
Échillais,45.89891,-0.95275
Duras,44.6764,0.18158
Doullens,50.15724,2.34019
Dinéault,48.21931,-4.16547
Déville-lès-Rouen,49.46942,1.05214
Cuzieu,45.60764,4.25761
Cublize,46.0181,4.37738
Crossac,47.41235,-2.16758
Creuzier-le-Vieux,46.16253,3.43311
Cranves-Sales,46.18799,6.29903
Cousance,46.53324,5.39214
Corcieux,48.17236,6.88148
Contrexéville,48.18424,5.89572
Congrier,47.81033,-1.1167
Condé-sur-Vire,49.05,-1.03333
Comps,43.85304,4.60567
Compiègne,49.41794,2.82606
Colomiers,43.61058,1.33467
Cléguer,47.85389,-3.38437
Chocques,50.54084,2.57193
Chèvremont,47.62912,6.92056
Cheval-Blanc,43.80189,5.06229
Chenôve,47.29323,5.00457
Chavagnes-en-Paillers,46.8925,-1.25193
Chaunay,46.20727,0.16412
Châtillon,45.80091,5.84352
Châtelaillon-Plage,46.07287,-1.08845
Château-Thierry,49.04636,3.40304
Châteaurenard,43.88169,4.85493
Châteauneuf-en-Thymerais,48.58112,1.24085
Charny,47.88661,3.09583
Changé,48.09924,-0.78966
Champlan,48.70823,2.27975
Champeix,45.58863,3.12878
Champagnole,46.74452,5.91354
Chabeuil,44.89843,5.01438
Cepoy,48.04795,2.73782
Cavan,48.67216,-3.34616
Castres-Gironde,44.69675,-0.44487
Cast,48.15819,-4.1392
Cambronne-lès-Ribécourt,49.50711,2.89797
Cadaujac,44.75523,-0.53023
Buzet-sur-Tarn,43.77977,1.63301
Breuil-Magné,45.98387,-0.95885
Bretteville-du-Grand-Caux,49.66667,0.4
Brécé,48.10904,-1.48308
Brasparts,48.30129,-3.95546
Branges,46.64441,5.18465
Bourg-Saint-Maurice,45.61463,6.76845
Bouloc,43.78163,1.40522
Bouafle,48.96463,1.9012
Bohain-en-Vermandois,49.9873,3.453
Blénod-lès-Toul,48.59882,5.83685
Blaringhem,50.6911,2.40321
Blainville-sur-Mer,49.06599,-1.5834
Beuzec-Cap-Sizun,48.07556,-4.51189
Beuvry,50.51674,2.68541
Besse-et-Saint-Anastaise,45.51667,2.93333
Bellegarde-en-Forez,45.64469,4.29721
Bégard,48.62766,-3.30178
Bégaar,43.82363,-0.84904
Beauvoir-de-Marc,45.52009,5.07906
Beaurainville,50.42432,1.89938
Beaulon,46.60156,3.67314
Bart,47.48861,6.7709
Thouars,46.9815,-0.21175
Thiers-sur-Thève,49.15252,2.57051
Théding,49.12847,6.8922
Tavel,44.01177,4.69989
Soultz-sous-Forêts,48.93693,7.8811
Sormiou,43.20959,5.41872
Serpaize,45.55824,4.91764
Avoine,47.20533,0.18253
Avize,48.97352,4.01438
Authon-du-Perche,48.19615,0.89189
Audierne,48.0164,-4.53838
Atur,45.14086,0.74701
Assérac,47.42925,-2.39062
Aspet,43.01487,0.80088
Asnières-sur-Nouère,45.71075,0.04729
Arnage,47.92619,0.18726
Argeliers,43.3118,2.91016
Arès,44.76576,-1.13421
Annay,50.46303,2.88122
Angoulême,45.64997,0.15345
els Banys d'Arles,42.47289,2.66916
Aillant-sur-Tholon,47.87426,3.35049
Ygos-Saint-Saturnin,43.97651,-0.7378
Yèvres,48.21078,1.18717
Woippy,49.15111,6.15132
Waziers,50.38717,3.1149
Wattrelos,50.70118,3.21812
Vouzon,47.64515,2.05609
Vitry-sur-Orne,49.26595,6.11074
Violaines,50.5416,2.7886
Vineuil,46.90038,1.63543
Villiers-sur-Orge,48.65953,2.30002
Villiers-Saint-Fréderic,48.81667,1.88333
Villetaneuse,48.95833,2.34167
Villebois,45.84822,5.4331
Vic-sur-Aisne,49.40609,3.11223
Veyre-Monton,45.66866,3.17144
Vendrennes,46.82613,-1.12339
Varennes-sur-Allier,46.31318,3.40147
Valros,43.4201,3.36603
Valmondois,49.0973,2.18996
Valleiry,46.11106,5.97037
Valergues,43.66819,4.06109
Uzemain,48.08572,6.34443
Usson-en-Forez,45.39174,3.94142
Trilport,48.95685,2.95076
Trémentines,47.12333,-0.78745
Trélévern,48.80851,-3.37176
Trébeurden,48.76929,-3.56814
Toul,48.68075,5.89115
Tiercé,47.6157,-0.46787
Thun-Saint-Amand,50.47276,3.45115
Thouaré-sur-Loire,47.26957,-1.44354
Thônes,45.88123,6.32572
Thizy-les-Bourgs,46.02995,4.31299
Teting-sur-Nied,49.05704,6.66294
Tavers,47.75921,1.61267
Tabanac,44.72051,-0.4057
Sury-le-Comtal,45.53735,4.18573
Spicheren,49.19252,6.96611
Servon-sur-Vilaine,48.12132,-1.46055
Serqueux,49.63202,1.54005
Sermaize-les-Bains,48.78507,4.91169
Septeuil,48.89245,1.68357
Selvigny,50.07971,3.34899
Savigny,45.81595,4.5741
Sausset-les-Pins,43.33136,5.10431
Saujon,45.67239,-0.92648
Saucats,44.6527,-0.59656
Sannois,48.96667,2.25
Saint-Viâtre,47.52438,1.93276
Pragoulin,46.05425,3.39346
Saint-Rémy-en-Mauges,47.27202,-1.07499
Saint-Quentin-la-Poterie,44.0454,4.44112
Saint-Philbert-de-Grand-Lieu,47.03573,-1.64088
Saint-Paul-Cap-de-Joux,43.64695,1.97543
Saint-Pal-de-Mons,45.24634,4.27416
Saint-Martin-de-Ré,46.2031,-1.36746
Saint-Jean-d'Illac,44.80978,-0.78394
Saint-Jean-de-Soudain,45.5677,5.4288
Saint-Jean-d'Aulps,46.23438,6.65327
Saint-Hilaire-de-Villefranche,45.85053,-0.52966
Saint-Hilaire de Talmont,46.47006,-1.60332
Saint-Georges-des-Groseillers,48.76993,-0.56768
Sainte-Sigolène,45.24329,4.23343
Sainte-Savine,48.29637,4.04642
Saint-Didier-sur-Chalaronne,46.17714,4.81626
Saint-Didier,48.09493,-1.37156
Saint-Claud,45.89543,0.46492
Saint-Chaffrey,44.92555,6.60768
Saint-Bris-le-Vineux,47.74396,3.64922
Saint-Brieuc,48.51513,-2.76838
Saint-Bonnet-près-Riom,45.92972,3.1131
Saint-Avertin,47.36357,0.73993
Saint-Aubin-sur-Gaillon,49.14701,1.32914
Saint-Aubin-des-Ormeaux,46.99194,-1.04316
Saint-André-les-Vergers,48.28527,4.0521
Saint-Andiol,43.83484,4.94453
Russ,48.496,7.25911
Rosult,50.45888,3.35902
Roquecourbe,43.66482,2.29072
Rocquencourt,48.83783,2.10228
Rochecorbon,47.41658,0.75521
Robion,43.84697,5.11017
Rivery,49.90328,2.32235
Rions,44.66385,-0.35221
Rians,47.17875,2.61359
Reyrieux,45.93577,4.81453
Revin,49.94039,4.63503
Revel,45.18618,5.87208
Restigné,47.28224,0.22788
Renwez,49.83839,4.60334
Recquignies,50.28396,4.03722
Raon-l'Étape,48.40414,6.83864
Raedersheim,47.88895,7.28222
Quaëdypre,50.93527,2.45445
Pussay,48.34908,1.99182
Priziac ( Priziac ),48.06045,-3.41037
Pringy,45.94622,6.12608
Prat,48.67685,-3.29807
Pouzauges,46.78242,-0.83794
Portiragnes,43.30467,3.33523
Pont-de-Chéruy,45.75344,5.17245
Pluneret,47.67558,-2.95887
Plumergat,47.74192,-2.91751
Plougrescant,48.84026,-3.22886
Ploufragan,48.49005,-2.79605
Ploërdut,48.08732,-3.28713
Ploemeur,47.73512,-3.42952
Plémy,48.33595,-2.6822
Plélan-le-Grand,48.00186,-2.09935
Plauzat,45.62157,3.14896
Plaintel,48.40754,-2.8179
Pissos,44.30894,-0.77859
Pirou,49.18089,-1.57384
Peyrehorade,43.54496,-1.10068
Perrecy-les-Forges,46.61453,4.2138
Peltre,49.0748,6.22721
Peillon,43.77861,7.38278
Pauillac,45.20023,-0.74876
Passy,45.92341,6.69562
Pacé,48.14854,-1.77435
Ozoir-la-Ferrière,48.76699,2.66871
Ostricourt,50.45145,3.03417
Ostheim,48.15995,7.36976
Osny,49.0701,2.06277
Ons-en-Bray,49.41631,1.92302
Ondres,43.5615,-1.44911
Oisy-le-Verger,50.25047,3.1233
Nouzonville,49.81369,4.74736
Nordhouse,48.44833,7.67326
Neuvéglise,44.92809,2.98328
Neung-sur-Beuvron,47.53486,1.80514
Naveil,47.79576,1.03222
Naucelles,44.95898,2.41884
Muron,46.03524,-0.82893
Mours,49.13077,2.26761
Mourenx,43.3703,-0.62986
Mougins,43.60068,6.99523
Morières-lès-Avignon,43.9403,4.9011
Montois-la-Montagne,49.2168,6.02137
Montmorency,48.98826,2.3434
Montmerle-sur-Saône,46.08333,4.76667
Montlieu-la-Garde,45.25,-0.25
Montigny-en-Ostrevent,50.36667,3.18333
Montferrat,45.48481,5.5902
Montech,43.95744,1.22979
Montcourt-Fromonville,48.30672,2.7046
Mont-Bernanchon,50.58333,2.58333
Montargis,47.99696,2.73261
Mons-en-Barœul,50.63333,3.11667
Mons,43.6124,1.57207
Moncé-en-Belin,47.8952,0.19929
Méteren,50.73333,2.7
Messery,46.35036,6.29099
Merten,49.24903,6.66465
Mérignies,50.50609,3.11043
Méaulte,49.98167,2.66121
Marmagne,46.83666,4.35892
Marigny-les-Usages,47.95799,2.01462
Mareuil-sur-Cher,47.29314,1.32897
Mareuil-sur-Ay,49.04581,4.03587
Marbache,48.79867,6.106
Malintrat,45.81509,3.18603
Luzy,46.79011,3.97036
Lusigny,46.58776,3.49142
Lusanger,47.68118,-1.58838
Lormes,47.28964,3.81714
Longpré-les-Corps-Saints,50.01239,1.99287
L'Isle-sur-la-Sorgue,43.91971,5.05141
Ligueil,47.0421,0.81893
Leucate,42.91056,3.02944
Le Thou,46.08424,-0.91732
Le Thillay,49.00659,2.47218
Le Syndicat,48.01733,6.68436
Les Touches,47.44249,-1.43097
Les Roches-de-Condrieu,45.45281,4.76718
Les Montils,47.49499,1.29775
Les Loges-en-Josas,48.76377,2.14002
Lempdes-sur-Allagnon,45.38333,3.28333
Le Mayet-de-Montagne,46.07091,3.66665
Lédenon,43.91554,4.50956
Le Crest,45.68666,3.12735
Lécousse,48.36732,-1.21809
Le Châtelet-en-Brie,48.50695,2.79163
Le Champ-Saint-Père,46.50835,-1.34633
Le Chambon-sur-Lignon,45.06097,4.30241
Le Bois-Plage-en-Ré,46.18622,-1.39238
La Ville-du-Bois,48.65521,2.26833
Lavardac,44.17952,0.29829
La Trinité-sur-Mer,47.58586,-3.0305
La Tardière,46.6611,-0.73256
Lassy,47.9791,-1.87054
La Sentinelle,50.35115,3.48425
La Ricamarie,45.40536,4.36944
Largentière,44.54272,4.29342
La Remuée,49.52773,0.40283
La Pommeraie-sur-Sèvre,46.83535,-0.77785
La Pomme,43.28987,5.44153
Lantriac,45.0005,4.00444
Lamanon,43.69979,5.08871
La Ferté-Macé,48.58999,-0.358
Val Thorens,45.29777,6.58377
Montolivet,43.31715,5.4235
La Chapelle-du-Noyer,48.03191,1.30953
Labarthe-sur-Lèze,43.45238,1.39973
Kunheim,48.07657,7.53489
Juillac,45.31808,1.32257
Janneyrias,45.75221,5.11277
Issou,48.98994,1.79292
Illfurth,47.6741,7.26607
Igney,48.27358,6.39664
Huttenheim,48.35864,7.57833
Huisseau-sur-Mauves,47.89319,1.70274
Homécourt,49.22071,5.99242
Haverskerque,50.64089,2.54162
Guingamp,48.56259,-3.15289
Gravigny,49.0531,1.16962
Gourdan-Polignan,43.07092,0.57482
Gouesnach,47.91071,-4.11525
Gilly-sur-Isère,45.65917,6.35096
Générac,43.72834,4.34846
Genay,45.89681,4.84091
Gaël,48.13264,-2.22185
Fumay,49.99132,4.70771
Franconville,48.98333,2.23333
Fourques-sur-Garonne,44.44857,0.15838
Fontenay-aux-Roses,48.79325,2.29275
Fontcouverte,45.77196,-0.59141
Fontaine-Étoupefour,49.146,-0.45522
Fleurance,43.8494,0.66298
Firmi,44.54106,2.30764
Fénay,47.23185,5.06211
Faremoutiers,48.79962,2.99607
Eymet,44.66732,0.39905
Eurville-Bienville,48.58333,5.03333
Étampes-sur-Marne,49.03464,3.41893
Esternay,48.73232,3.56159
Enval,45.89921,3.04981
Égletons,45.40637,2.04518
Ébreuil,46.11548,3.08677
Draveil,48.68466,2.41418
Dom-le-Mesnil,49.69012,4.80363
Diemeringen,48.94013,7.18839
Crisolles,49.6225,3.01451
Crèvecœur-le-Grand,49.6,2.08333
Cousolre,50.24607,4.14941
Cours-de-Pile,44.8413,0.54549
Cormontreuil,49.21667,4.05
Combloux,45.8979,6.6442
Colleville-Montgomery,49.27528,-0.30052
Colayrac-Saint-Cirq,44.21996,0.55282
Clermont-en-Argonne,49.10711,5.07002
Clères,49.6,1.11667
Chevaigné,48.21142,-1.62966
Cherves-Richemont,45.74345,-0.35096
Chavanay,45.41647,4.72602
Châteauneuf-sur-Sarthe,47.68087,-0.48848
Châteaufort,48.73584,2.09054
Châteaubriant,47.71675,-1.37643
Chassors,45.69722,-0.21014
Chârost,46.9939,2.11639
Chancenay,48.67001,4.98715
Champvans,47.10466,5.4376
Champignelles,47.78009,3.07457
Chalo-Saint-Mars,48.42328,2.06491
Challex,46.18458,5.97639
Chalamont,45.99734,5.16865
Chaillevette,45.73087,-1.05839
Chacé,47.21435,-0.07179
Cessenon-sur-Orb,43.45011,3.05154
Cayeux-sur-Mer,50.182,1.494
Castelnau-de-Médoc,45.02695,-0.79906
Castelginest,43.69382,1.4344
Cahuzac-sur-Vère,43.9829,1.91029
Bry-sur-Marne,48.83811,2.52488
Bruguières,43.7272,1.40762
Bruay-sur-l'Escaut,50.39918,3.54379
Briscous,43.46028,-1.33394
Briis-sous-Forges,48.62399,2.12112
Brenouille,49.30551,2.54437
Bray-sur-Seine,48.41371,3.23852
Bouzonville,49.29188,6.53386
Boulay-Moselle,49.18333,6.5
Bouin,46.97417,-1.99846
Boué,50.01141,3.69608
Boucau,43.5277,-1.46556
Bondoufle,48.61294,2.37775
Boissy-le-Châtel,48.82073,3.13651
Blonville-sur-Mer,49.33709,0.02709
Bischheim,48.61612,7.75343
Bihorel,49.45468,1.1223
Beynes,48.85626,1.87261
Bessenay,45.77661,4.55441
Bernis,43.76557,4.28619
Belligné,47.46774,-1.0278
Bellenaves,46.20045,3.07995
Beignon,47.97062,-2.17155
Bègles,44.80759,-0.55144
Beaune,47.02413,4.83887
Beaugency,47.78019,1.62705
Beaucouzé,47.47514,-0.63219
Beauchamps,50.01202,1.51764
Bartenheim,47.63364,7.47951
Banyuls de la Marenda,42.48375,3.12897
Bains-les-Bains,48.00113,6.26492
Bagneux,48.79565,2.30796
Bachant,50.2154,3.86835
Auffay,49.71881,1.09911
Auch,43.64561,0.58856
Auby,50.41457,3.05396
Aubigné-Racan,47.69096,0.26726
Astaffort,44.06337,0.6512
Aspach-le-Haut,47.77653,7.13145
Arnac-la-Poste,46.26609,1.37338
Arleux,50.28037,3.10448
Argences,49.12635,-0.16644
Ardentes,46.74191,1.83428
Arcey,47.52258,6.66222
Arâches-la-Frasse,46.04297,6.63145
Anneyron,45.2722,4.88626
Aniche,50.32995,3.25346
Andé,49.23163,1.24088
Amou,43.59292,-0.74714
Amanvillers,49.16784,6.04367
Althen-des-Paluds,44.00405,4.95861
Allonnes,47.96744,0.16023
Alixan,44.97426,5.0285
Aiguillon,44.29919,0.33943
Aigrefeuille-sur-Maine,47.08008,-1.40419
Ahuillé,48.02076,-0.87071
Achères-la-Forêt,48.35458,2.57035
Abrest,46.09859,3.44461
Ablis,48.5172,1.83624
Baille,43.2877,5.39804
Wolfgantzen,48.02805,7.5004
Waldighofen,47.55045,7.31512
Virieu-le-Grand,45.84766,5.65146
Vireux-Molhain,50.07874,4.72426
Vineuil-Saint-Firmin,49.20024,2.49567
Vincey,48.33749,6.33134
Villiers-en-Lieu,48.66785,4.89755
Villers-la-Montagne,49.47175,5.82522
Villeneuve-sur-Lot,44.40854,0.70415
Villeneuve-lès-Maguelone,43.53222,3.86047
Villeneuve-de-la-Raho,42.63696,2.91683
Villeneuve,44.94488,6.56545
Villenave-d'Ornon,44.77935,-0.56707
Vigy,49.20443,6.29906
Vignacourt,50.01236,2.19743
Vertheuil,45.25049,-0.83448
Véron,48.12853,3.30773
Vernosc-lès-Annonay,45.21596,4.7131
Vermenton,47.66459,3.73501
Vennecy,47.95465,2.05459
Vendres,43.26978,3.22395
Vecoux,47.97797,6.63651
Vayrac,44.95312,1.70327
Vaucresson,48.84078,2.15652
Ugine,45.75571,6.41503
Trégastel,48.81667,-3.5
Torreilles,42.75505,2.99351
Thouarcé,47.26715,-0.50091
Thoissey,46.17222,4.80251
Thiverval-Grignon,48.84964,1.91729
Thézan-lès-Béziers,43.42166,3.16897
Tende,44.08752,7.59366
Tarnos,43.5417,-1.46281
Stenay,49.49489,5.18606
Soucy,48.24956,3.32385
Solre-le-Château,50.17432,4.08898
Solliès-Toucas,43.20579,6.02485
Sevrey,46.73825,4.8403
Sermérieu,45.66995,5.4111
Seine-Port,48.55743,2.55316
Savigny-Lévescault,46.53575,0.47701
Saverdun,43.23458,1.57443
Sauxillanges,45.55109,3.37147
Sauvigny-les-Bois,46.96676,3.2719
Saulnes,49.53189,5.8213
Sathonay-Camp,45.82462,4.87453
Samoëns,46.08282,6.72647
Salses-le-Château,42.83333,2.91667
Saïx,43.58109,2.18267
Saint-Yorre,46.06598,3.4643
Saint-Vincent-des-Landes,47.65578,-1.49547
Saint-Vallier-de-Thiey,43.69841,6.84779
Saint-Romain-la-Motte,46.0815,3.99076
Saint-Porchaire,45.82101,-0.78414
Saint-Ouen,47.81404,1.08067
Saint-Morillon,44.64984,-0.50294
Saint-Martin-Lacaussade,45.14692,-0.64292
Saint-Martin-du-Tertre,49.10743,2.34533
Saint-Martin-du-Tertre,48.21659,3.26151
Saint-Martin-de-Landelles,48.5453,-1.1724
Saint-Marcel-lès-Annonay,45.28613,4.62616
Saint-Louis,43.34809,5.35463
Saint-Louis,47.59206,7.55923
Saint-Laurent-du-Pape,44.82328,4.76679
Saint-Laurent-de-la-Plaine,47.31738,-0.80333
Saint-Junien,45.88746,0.90158
Saint-Julien-en-Saint-Alban,44.75417,4.69678
Saint-Julien,47.40029,5.14163
Saint-Julien,43.31334,5.44935
Saint-Jean-d'Angély,45.94408,-0.52133
Saint-Hilaire-de-la-Côte,45.39162,5.3159
Saint-Gervasy,43.87796,4.46818
Saint-Étienne-du-Grès,43.78045,4.72534
Saint-Étienne-du-Bois,46.83059,-1.59544
Corcoué-sur-Logne,46.96667,-1.58333
Sainte-Radegonde,46.98333,-0.25
Sainte-Hélène,47.71958,-3.20463
Saint-Didier-de-la-Tour,45.55755,5.48026
Saint-Carreuc,48.39844,-2.7317
Saint-Broladre,48.58684,-1.65677
Saint-Briac-sur-Mer,48.62048,-2.13348
Saint-Bon-Tarentaise,45.43373,6.63686
Saint-Berain-sous-Sanvignes,46.70678,4.29405
Saint-Aunès,43.64083,3.96583
Saint-Armel,48.01247,-1.59146
Saint-Agnant-de-Versillat,46.27852,1.51019
Ruaudin,47.94499,0.26632
Roz-sur-Couesnon,48.58842,-1.59255
Roybon,45.25851,5.24502
Routot,49.378,0.73346
Rosières-près-Troyes,48.26182,4.07396
Roquevaire,43.35021,5.60414
Ronchamp,47.70063,6.63591
Romilly-sur-Seine,48.51085,3.72634
Romillé,48.21586,-1.89208
Romenay,46.50208,5.06904
Rolampont,47.94951,5.2856
Roche-lez-Beaupré,47.28333,6.11667
Requeil,47.78493,0.16182
Rabastens-de-Bigorre,43.38758,0.15057
Puteaux,48.88341,2.23894
Pugnac,45.08204,-0.49628
Porcieu,45.83416,5.40168
Pont-du-Château,45.7983,3.24839
Pommerit-le-Vicomte,48.61976,-3.08948
Plouzané,48.38131,-4.61805
Ploudaniel,48.53693,-4.31146
Pléneuf-Val-André,48.59111,-2.54846
Plainfaing,48.17284,7.01539
Pierre-Buffière,45.69451,1.35895
Perpignan,42.69764,2.89541
Pérignat-sur-Allier,45.72843,3.23184
Parthenay,46.64832,-0.24672
Ouzouer-sur-Trézée,47.67266,2.808
Ouroux-sur-Saône,46.72147,4.95262
Ornans,47.10749,6.14306
Orgères,47.99847,-1.66828
Onnaing,50.38584,3.59963
Nuits-Saint-Georges,47.13683,4.949
Notre-Dame-de-Monts,46.831,-2.131
Noizay,47.42188,0.89201
Nieul,45.92668,1.17494
Niederschaeffolsheim,48.77241,7.73862
Névian,43.21225,2.90235
Neuville-sur-Escaut,50.3,3.35
Neuville-de-Poitou,46.68505,0.24474
Nassandres,49.12632,0.73597
Mûrs-Erigné,47.39592,-0.55293
Moulins,46.56459,3.33243
Morangis,48.70383,2.33908
Montrottier,45.7901,4.4666
Montierchaume,46.86362,1.77181
Montfort-le-Gesnois,48.04798,0.40339
Montescourt-Lizerolles,49.73828,3.25736
Monterfil,48.0669,-1.97812
Montbronn,48.99243,7.31075
Montayral,44.48,0.98381
Monsempron,44.49144,0.94101
Molières,44.19332,1.36364
Mirefleurs,45.69319,3.2237
Miré,47.75752,-0.49177
Mirandol-Bourgnounac,44.14193,2.16676
Menetou-Salon,47.23172,2.48715
Melesse,48.21762,-1.69721
Meaux,48.96014,2.87885
Mauves,45.03833,4.82934
Marcillac-Vallon,44.47464,2.46454
Marcellaz-Albanais,45.87546,5.9988
Malaucène,44.17393,5.13213
Maintenon,48.58704,1.57847
Magny-les-Hameaux,48.74345,2.06154
Luzinay,45.58996,4.95891
Luc-la-Primaube,44.31439,2.53552
Luant,46.733,1.55793
Loyat,47.98984,-2.38329
Loperhet,48.37544,-4.30641
Loivre,49.34619,3.97978
Loison-sous-Lens,50.43796,2.85322
Loiron,48.05971,-0.93536
Livron-sur-Drôme,44.77689,4.8418
Limeil-Brévannes,48.7448,2.48705
Ligny-en-Cambrésis,50.10123,3.37841
Lignières,46.75152,2.17381
Lezay,46.26494,-0.00909
Lézat-sur-Lèze,43.27622,1.34664
Moutiers-les-Mauxfaits,46.49358,-1.42662
Les Matelles,43.73044,3.80912
Les Lucs-sur-Boulogne,46.84414,-1.49392
Les Landes-Genusson,46.96378,-1.1194
Les Champs-Géraux,48.41649,-1.97148
Le Pontet,43.96119,4.86008
Le Poiré-sur-Vie,46.76868,-1.50911
Le Pin,48.91523,2.62841
Le Minihic-sur-Rance,48.57659,-2.01221
Le Mesnil-le-Roi,48.93825,2.12554
Le Manoir,49.31355,1.20455
Le Cailar,43.6759,4.23616
Le Blanc,46.63371,1.06272
La Turballe,47.34569,-2.50699
La Salle-et-Chapelle-Aubry,47.25013,-0.97512
Larressore,43.37024,-1.43924
La Roquette-sur-Siagne,43.59873,6.95671
Lanton,44.70712,-1.03968
Lannilis,48.57,-4.52196
La Montagne,47.18987,-1.68395
La Meilleraie-Tillay,46.74108,-0.84603
Lamarche-sur-Saône,47.26946,5.38589
Laillé,47.97821,-1.71945
La Ferté-sous-Jouarre,48.9514,3.12724
La Crau,43.14962,6.07399
La Chapelle-de-Guinchay,46.20841,4.76245
La Bazoche-Gouet,48.13985,0.98163
La Baconnière,48.18297,-0.89373
Jussac,44.98764,2.42308
Jouet-sur-l'Aubois,47.04562,2.98725
Incheville,50.01239,1.49438
Hornaing,50.36835,3.33707
Horgues,43.18842,0.08808
Hondschoote,50.978,2.58372
Hazebrouck,50.72374,2.53729
Gueux,49.25048,3.91024
Guenrouet,47.51939,-1.95679
Gréasque,43.4331,5.54449
Granville,48.83792,-1.59714
Gallargues-le-Montueux,43.71667,4.16667
Grandfresnoy,49.37218,2.65216
Gonesse,48.98693,2.44892
Givet,50.13796,4.82545
Gillonnay,45.39251,5.29413
Gidy,47.98539,1.83816
Gerzat,45.82581,3.14473
Genillé,47.18333,1.1
Génelard,46.58119,4.23619
Gargenville,48.98802,1.81176
Gardanne,43.45491,5.46913
Frotey-lès-Vesoul,47.62078,6.18831
Fourchambault,47.01667,3.08333
Foulayronnes,44.24029,0.64516
Fortschwihr,48.08825,7.4505
Fontenay-Trésigny,48.70647,2.87047
Fontaines-sur-Saône,45.83572,4.8449
Flayosc,43.53396,6.3966
Firminy,45.38956,4.2886
Faverolles-sur-Cher,47.31732,1.19045
Étables-sur-Mer,48.63333,-2.83333
Estrées,50.30079,3.0698
Essômes-sur-Marne,49.02881,3.37571
Erbrée,48.09828,-1.12496
Ensisheim,47.86584,7.35052
Larequille,46.25189,2.70163
Dugny-sur-Meuse,49.10953,5.3855
Dormans,49.07392,3.63819
Don,50.54912,2.91817
Domgermain,48.64276,5.82957
Dombasle-sur-Meurthe,48.61861,6.35538
Dingsheim,48.63053,7.66932
Désertines,46.35456,2.61924
Decize,46.82852,3.46192
Dachstein,48.56127,7.53233
Cugand,47.06353,-1.25463
Criquetot-l'Esneval,49.64555,0.26571
Cours-la-Ville,46.1,4.31667
Cournon-d'Auvergne,45.74123,3.19643
Coublevie,45.35856,5.61146
Corpeau,46.92917,4.75226
Cornil,45.21062,1.69173
Corbelin,45.60733,5.54261
Commequiers,46.76264,-1.83815
Comines,50.7615,3.01063
Coëx,46.69748,-1.7602
Clairac,44.36016,0.37829
Cholet,47.05893,-0.87974
Choisy,45.99359,6.05866
Chavanoz,45.76846,5.18808
Charentay,46.08897,4.67921
Charbonnières-les-Bains,45.78053,4.74637
Chambon-sur-Voueize,46.18996,2.42488
Ceyzériat,46.18126,5.31977
Ceyreste,43.21352,5.62946
Cavignac,45.10062,-0.38967
Cars,45.12977,-0.62046
Carling,49.16635,6.71563
Capestang,43.3288,3.04466
Candillargues,43.62049,4.06832
Cadalen,43.84982,1.98096
Bussière-Dunoise,46.25845,1.76228
Buis-les-Baronnies,44.27647,5.27187
Bruyères-sur-Oise,49.15756,2.32577
Briollay,47.56446,-0.50805
Brignoles,43.4058,6.06172
Briec,48.10184,-3.99915
Bréauté,49.62805,0.40005
Bouzigues,43.44843,3.65761
Bouxwiller,48.82495,7.48117
Bouville,49.56193,0.89514
Bourgueil,47.28333,0.16612
Bourg-de-Thizy,46.03371,4.29904
Bonnemain,48.46675,-1.76731
Blotzheim,47.6026,7.49654
Bliesbruck,49.11543,7.18112
Beure,47.2069,6.00548
Béthisy-Saint-Pierre,49.30482,2.79636
Berre-l'Étang,43.47809,5.17044
Bernières-sur-Mer,49.33057,-0.42299
Belmont-sur-Rance,43.81812,2.7543
Belleu,49.35917,3.33556
Belle-Isle-en-Terre,48.54477,-3.39583
Bellegarde,47.98333,2.43333
Beauchastel,44.82587,4.80305
Beauchamp,49.01667,2.2
Bazoges-en-Pareds,46.65697,-0.9183
Bazeilles,49.6765,4.97752
Bassan,43.41126,3.25312
Barjols,43.55805,6.00752
Baraqueville,44.27655,2.43184
Bandol,43.14247,5.74718
Bailleau-le-Pin,48.36698,1.32948
Bagnolet,48.86667,2.41667
Azé,47.8222,-0.68333
Avord,47.03514,2.65295
Aureilhan,43.24372,0.09593
Aulnoye-Aymeries,50.20141,3.83844
Audun-le-Tiche,49.47217,5.9555
Audincourt,47.48327,6.85341
Arzano,47.90116,-3.4404
Artigues-près-Bordeaux,44.85887,-0.49718
Argelès-Gazost,43.00271,-0.09914
Argancy,49.19543,6.20157
Annot,43.96528,6.66879
Anhiers,50.40737,3.15512
Andelnans,47.60267,6.86621
Amfreville,49.25,-0.23333
Allauch,43.33573,5.48201
Aigueperse,46.02255,3.20228
Agen,44.20199,0.62055
Abeilhan,43.4499,3.29488
Lyon 06,45.76788,4.85064
Marseille 13,43.31856,5.40836
La Valbarelle,43.28494,5.45387
Cervera de la Marenda,42.44094,3.16518
Bagnac-sur-Célé,44.66667,2.16667
Avermes,46.58774,3.3072
Auzances,46.02859,2.50073
Ascain,43.34595,-1.62118
Arvert,45.7406,-1.12793
Arnay-le-Duc,47.13202,4.48595
Arbonne-la-Forêt,48.41405,2.56677
Aouste-sur-Sye,44.71813,5.05422
Ambronay,46.00467,5.36273
Amanlis,48.00627,-1.47642
Allex,44.76765,4.89837
Allègre,45.19959,3.71174
Algolsheim,48.00629,7.55945
La Colle-sur-Loup,43.68648,7.10376
La Clayette,46.29002,4.30422
La Ciotat,43.17476,5.60449
La Chapelle-Launay,47.37195,-1.9715
La Chapelle-Janson,48.34771,-1.10171
La Celle-sur-Morin,48.81146,2.96921
Knutange,49.33895,6.03898
Juvisy-sur-Orge,48.68333,2.38333
Jugon-les-Lacs,48.41667,-2.33333
Jouques,43.6371,5.63672
Job,45.61607,3.74542
Izernore,46.21352,5.552
Hoymille,50.97187,2.44738
Houdan,48.79044,1.60007
Holtzwihr,48.11288,7.4208
Holtzheim,48.5582,7.64434
Hauterive,46.08834,3.44626
Hasparren,43.38394,-1.30523
Guéreins,46.10346,4.77275
Guérard,48.82086,2.95969
Gramat,44.77942,1.72469
Gourdon,44.73576,1.38071
Fublaines,48.93816,2.93655
Foissiat,46.3715,5.17525
Flines-lez-Raches,50.41667,3.18333
Fleury-les-Aubrais,47.93328,1.91811
Fleury,49.04181,6.19329
Fitilieu,45.54744,5.56194
Férolles,47.83475,2.11113
Faches-Thumesnil,50.58333,3.06667
Évires,46.03783,6.22453
Étréchy,48.49465,2.19489
Erdeven,47.6422,-3.15662
Epiniac,48.51023,-1.69751
Englefontaine,50.19091,3.64401
Élancourt,48.78421,1.9552
Éguzon-Chantôme,46.45,1.58333
Égreville,48.17606,2.87278
Eaubonne,48.99712,2.28249
Dunkerque,51.0344,2.37681
Duclair,49.48385,0.87617
Drap,43.75508,7.32152
Douarnenez,48.09542,-4.32904
Donzy,47.37066,3.12548
Donnery,47.91486,2.10299
Dompierre-sur-Mer,46.18828,-1.06353
Diesen,49.17818,6.67798
Denée,47.37869,-0.60758
Dangé-Saint-Romain,46.93333,0.6
Damprichard,47.24413,6.88121
Dambach-la-Ville,48.32379,7.42547
Culoz,45.84886,5.78537
Cuise-la-Motte,49.38642,3.00588
Crouy-sur-Ourcq,49.0898,3.0753
Crouy,49.40274,3.35834
Creysse,44.85514,0.56551
Cravanche,47.65346,6.83197
Courcelles-lès-Montbéliard,47.50113,6.78461
Coulombiers,46.48615,0.18734
Cossé-le-Vivien,47.94538,-0.91184
Corsept,47.27678,-2.06062
Corbarieu,43.94422,1.36808
Condé-Sainte-Libiaire,48.89695,2.83904
Coëtmieux,48.49166,-2.60029
Cires-lès-Mello,49.27242,2.3584
Châtellerault,46.81705,0.54518
Château-la-Vallière,47.54665,0.32458
Château-Gaillard,45.97239,5.30436
Charmes-sur-Rhône,44.86367,4.83533
Champsecret,48.60925,-0.55058
Chamant,49.2199,2.61176
Chamagnieu,45.68249,5.16947
Ceyrat,45.73265,3.06323
Ceton,48.22631,0.74968
Cernay,47.8097,7.17699
Caumont-sur-Durance,43.89356,4.94745
Castets,43.88258,-1.14741
Casteljaloux,44.3147,0.08767
Carmaux,44.04963,2.1581
Carantec,48.6677,-3.91416
Canet,43.22842,2.8469
Cancale,48.6766,-1.85216
Cabariot,45.92553,-0.85743
Butry-sur-Oise,49.08837,2.19916
Bussières,45.8357,4.27123
Buchères,48.23508,4.1131
Bû,48.79705,1.49702
Bréhand,48.40257,-2.57375
Bras,43.47163,5.95486
Bram,43.24376,2.11341
Bourth,48.76846,0.80911
Bourg,45.04062,-0.55893
Boisseuil,45.77003,1.33124
Boisset,44.0476,4.00908
Berck,50.4,1.6
Benquet,43.82967,-0.50171
Bellignat,46.24237,5.62843
Beauvois-en-Cambrésis,50.13735,3.3787
Bauné,47.49954,-0.31906
Batz-sur-Mer,47.27732,-2.48048
Thumeries,50.47662,3.055
Thomery,48.40723,2.78852
Schweighouse-sur-Moder,48.82009,7.7281
Savigny-sur-Braye,47.87923,0.80981
Sallaumines,50.41749,2.86174
Salindres,44.17154,4.15767
Salignac,45.01607,-0.37964
Saint-Yzan-de-Soudiac,45.14054,-0.4109
Saint-Viance,45.2176,1.45263
Saint-Usage,47.11009,5.26044
Saint-Trivier-sur-Moignans,46.07233,4.89721
Saint-Sulpice-les-Feuilles,46.31826,1.36753
Saint-Sulpice-de-Royan,45.67162,-1.01218
Saint-Sulpice-de-Cognac,45.76024,-0.38223
Saint-Sauveur,47.8053,6.38583
Saint-Saturnin-sur-Loire,47.39438,-0.43565
Saint-Romain-le-Puy,45.55837,4.12296
Saint-Pons-de-Thomières,43.48333,2.76667
Saint-Pierre-la-Cour,48.11479,-1.02649
Saint-Paul-lès-Romans,45.06725,5.13213
Saint-Pardoux-Isaac,44.61174,0.37283
Saint-Paër,49.51452,0.87935
Saint-Michel-sur-Orge,48.63479,2.30831
Saint-Maurice-sur-Fessard,47.99231,2.62157
Saint-Mammès,48.38458,2.81578
Sant Llorenç de Cerdans,42.38473,2.6132
Saint-Laurent-de-Brévedent,49.52564,0.25458
Saint-Hilaire-des-Loges,46.4714,-0.66437
Saint-Hilaire,45.3,5.88333
Saint-Germain-les-Belles,45.61515,1.49527
Saint-Étienne-de-Tinée,44.25643,6.92499
Sainte-Suzanne,47.50017,6.76775
Sainte-Marie-des-Champs,49.6212,0.77904
Sainte-Colombe,45.52531,4.86664
Saint-Désir,49.14056,0.21398
Saint-Denis-de-Gastines,48.34205,-0.85763
Saint-Ciers-d'Abzac,45.03136,-0.2783
Saint-Christol-les-Alès,44.08411,4.07691
Saint-Astier,45.14526,0.52745
Saint-Antoine,43.37087,5.35888
Saint-Andéol-le-Château,45.58597,4.69504
Saint-Alban-de-Roche,45.5949,5.2263
Saint-Alban,43.6927,1.4102
Saâcy-sur-Marne,48.9621,3.21083
Rozérieulles,49.10668,6.08198
Roullet-Saint-Estèphe,45.58333,0.05
Romagné,48.34181,-1.27697
Rognac,43.48761,5.23387
Roézé-sur-Sarthe,47.89578,0.06662
Rodilhan,43.82725,4.43088
Rives,45.35326,5.50084
Riom,45.89362,3.11264
Ribaute-les-Tavernes,44.03724,4.08046
Rebais,48.84721,3.23232
Réalmont,43.77754,2.18885
Râches,50.41706,3.13635
Rabastens,43.82512,1.72382
Puylaurens,43.57222,2.01113
Prigonrieux,44.85471,0.40265
Preuilly-sur-Claise,46.85424,0.92954
Pouillon,43.6049,-0.99625
Porcheville,48.97254,1.77973
Pommeret,48.46251,-2.62656
Poligny,46.83712,5.70505
Plozévet,47.98546,-4.4261
Ploumoguer,48.40322,-4.72305
Ploumagoar,48.54532,-3.13221
Plouider,48.60835,-4.29887
Plouézec,48.74894,-2.98466
Plouër-sur-Rance,48.5275,-2.00325
Ploubalay,48.58018,-2.14166
Plonévez-du-Faou,48.25333,-3.8256
Plomelin,47.93566,-4.15336
Plaisance,43.60562,0.04589
Peyrolles-en-Provence,43.64545,5.58492
Peyriac-Minervois,43.29091,2.56591
Peypin,43.38503,5.57788
Persan,49.15335,2.27218
Pérouges,45.9044,5.17695
Peipin,44.13778,5.95722
Ouges,47.26164,5.07395
Osséja,42.41383,1.98192
Oissel,49.33309,1.09413
Oermingen,49.00043,7.129
Oberschaeffolsheim,48.58643,7.65018
Nozay,47.56473,-1.62559
Nogent-le-Phaye,48.44528,1.57777
Niederhausbergen,48.624,7.7021
Niederhaslach,48.54264,7.34282
Nevoy,47.71591,2.57791
Narrosse,43.70324,-1.00832
Nanteuil-en-Vallée,46.00065,0.32171
Naizin,47.98972,-2.83267
Nages-et-Solorgues,43.7906,4.23003
Mussidan,45.03505,0.36495
Mus,43.73976,4.20055
Mouthiers-sur-Boëme,45.56018,0.12382
Moulay,48.27269,-0.6283
Mortrée,48.63899,0.07909
Morsbach,49.16806,6.8719
Mont-Saint-Martin,49.54363,5.78337
Montrodat,44.55131,3.3291
Montrem,45.13439,0.59032
Montréal,43.9502,0.20217
Mont-près-Chambord,47.56235,1.45712
Montfaucon-Montigné,47.1,-1.11667
Montenay,48.2886,-0.89273
Montagny,45.62801,4.74778
Monségur,44.65057,0.08063
Monflanquin,44.5313,0.76718
Moisdon-la-Rivière,47.62143,-1.37275
Mirepeix,43.18949,-0.25067
Millas,42.69203,2.69508
Mettray,47.45251,0.64939
Méry,45.64139,5.9355
Méricourt,50.40116,2.86246
Mées,43.70388,-1.10987
May-sur-Orne,49.10107,-0.37471
Mauriac,45.21899,2.33353
Masevaux,47.77671,6.99683
Martin-Église,49.90174,1.1412
Marles-les-Mines,50.50478,2.50882
Marlenheim,48.62134,7.49096
Mareuil-sur-Lay-Dissais,46.53333,-1.23333
Marennes,45.82268,-1.10514
Marennes,45.62089,4.91236
Marckolsheim,48.16471,7.544
Maillot,48.17557,3.30784
Magny-le-Hongre,48.86325,2.81546
Magné,46.31532,-0.54683
Magnanville,48.96798,1.67842
Maché,46.75507,-1.68578
Luitré,48.2831,-1.11875
Lucenay,45.91274,4.70287
Louargat,48.56613,-3.33864
Louannec,48.79425,-3.41117
Longuenesse,50.73395,2.2352
Londinières,49.83187,1.40232
Loisin,46.29227,6.3101
Locoal-Mendon,47.7052,-3.10796
Ligny-le-Châtel,47.90022,3.7576
Les Riceys,47.9939,4.36986
Le Sappey-en-Chartreuse,45.26235,5.77476
Les Abrets,45.54466,5.58021
Le Pizou,45.02514,0.06223
Le Grand-Pressigny,46.92017,0.8038
Le Creusot,46.80714,4.41632
Le Coudray-Montceaux,48.56376,2.50013
Le Cellier,47.31964,-1.34716
Lavaur,43.69886,1.81211
Lauris,43.74716,5.31346
La Terrasse,45.32052,5.92761
La Roche-sur-Yon,46.66974,-1.42757
La Roche-Derrien,48.74694,-3.26056
La Possonnière,47.37446,-0.68755
La Pommeraye,47.35534,-0.86007
Lannion,48.73264,-3.45657
Langueux,48.49528,-2.71823
Langon,44.55277,-0.24986
Langogne,44.72726,3.85539
Lamotte-Beuvron,47.602,2.02837
La Motte,48.23438,-2.73367
La Milesse,48.06473,0.1357
La Garde-Freinet,43.3171,6.46946
La Forest-Landerneau,48.4278,-4.31565
Walbourg,48.88628,7.78828
Visan,44.31468,4.95033
Virey-le-Grand,46.83333,4.86667
Villeneuve-la-Garenne,48.93935,2.31478
Villemandeur,47.98701,2.71802
Villefontaine,45.61278,5.15058
Vert-Saint-Denis,48.56818,2.62007
Vernouillet,48.7209,1.36951
Verneuil-sur-Avre,48.73949,0.92731
Vedène,43.97744,4.90428
Varennes-sur-Loire,47.23851,0.05314
Vals-les-Bains,44.66561,4.36615
Valras-Plage,43.24808,3.29032
Uriménil,48.10079,6.40046
Tulette,44.28656,4.93122
Triguères,47.93975,2.9857
Trédrez-Locquémeau,48.7,-3.56667
Surzur,47.57867,-2.63043
Soumoulou,43.26675,-0.19029
Souffelweyersheim,48.6354,7.74141
Sion-les-Mines,47.73512,-1.59201
Seyssins,45.16224,5.68673
Seynod,45.88549,6.08831
Sévignac,48.33373,-2.33855
Senonches,48.55999,1.03069
Seilh,43.69469,1.35509
Seignelay,47.90542,3.60136
Saultain,50.33676,3.57723
Yerville,49.6672,0.89594
Wormhout,50.88129,2.46901
Wavignies,49.54748,2.36032
Wambrechies,50.68276,3.04784
Vue,47.19865,-1.88108
Vouziers,49.39791,4.7012
Voulangis,48.85252,2.89558
Viviers,44.4828,4.68895
Ville-sous-la-Ferté,48.1206,4.78957
Villers-Outréaux,50.0359,3.29947
Villers-Écalles,49.54136,0.91942
Villeneuve-Saint-Germain,49.37976,3.35952
Villemur-sur-Tarn,43.86708,1.50281
Villars-les-Dombes,46.00208,5.03248
Vif,45.05654,5.67204
Vendeuvre-sur-Barse,48.23786,4.46905
Vémars,49.06942,2.56643
Vaugrigneuse,48.60263,2.12218
Vauchrétien,47.33234,-0.47678
Varennes-Saint-Sauveur,46.48226,5.24349
Vallabrègues,43.85307,4.62662
Valframbert,48.46465,0.10828
Ussel,45.54804,2.30917
Urville-Nacqueville,49.67444,-1.73664
Truchtersheim,48.66313,7.60752
Tressin,50.6175,3.19354
Treffort-Cuisiat,46.26667,5.36667
Thuellin,45.63964,5.5084
Sulniac,47.67589,-2.57201
Stiring-Wendel,49.20198,6.9317
Sourcieux-les-Mines,45.80606,4.62254
Somain,50.35961,3.28108
Soisy-sur-Seine,48.64875,2.45223
Sigolsheim,48.13493,7.2998
Signes,43.2908,5.86284
Sérignan,43.27924,3.27664
Sebourg,50.34249,3.64352
Saulxures-sur-Moselotte,47.94894,6.7704
Sathonay-Village,45.83337,4.87821
Sassenay,46.83074,4.92523
Salouël,49.86988,2.2434
Salignac-Eyvigues,44.97464,1.32428
Saint-Yan,46.41147,4.03876
Saint-Vit,47.18333,5.81667
Saint-Usuge,46.679,5.25089
Saint-Sulpice-de-Faleyrens,44.87454,-0.19045
Saint-Sauves-d'Auvergne,45.60679,2.68768
Saint-Quentin,49.84889,3.28757
Saint-Pol-sur-Mer,51.03116,2.33983
Saint-Pierre-sur-Dives,49.01667,-0.03333
Saint-Pierre-la-Palud,45.79092,4.61177
Saint-Philbert-de-Bouaine,46.98748,-1.51961
Saint-Paul-en-Forêt,43.56709,6.69206
Saint-Nabord,48.05171,6.58248
Saint-Michel,49.91952,4.13278
Saint-Martin-du-Frêne,46.13591,5.55049
Saint-Laurent-de-la-Prée,45.98181,-1.04106
Saint-Jean-des-Mauvrets,47.39857,-0.44929
Saint-Jacques-de-la-Lande,48.0647,-1.72088
Saint-Hilaire-de-Chaléons,47.10328,-1.86577
Saint-Herblain,47.21154,-1.651
Saint-Gervais-les-Trois-Clochers,46.90065,0.4076
Saint-Genix-sur-Guiers,45.59864,5.63559
Saint-Félicien,45.086,4.62738
Sainte-Tulle,43.78619,5.76513
Saint-Erme-Outre-et-Ramecourt,49.51464,3.8406
Sainte-Foy-l'Argentière,45.70823,4.47025
Sainte-Euphémie,45.97101,4.79853
Saint-Domineuc,48.37298,-1.87633
Saint-Cyr-sur-Mer,43.18048,5.7012
Saint-Cyr-l'École,48.79865,2.06814
Saint-Cyprien,45.5345,4.23428
Saint-Christo-en-Jarez,45.54508,4.48826
Saint-Bonnet-en-Champsaur,44.68333,6.08333
Saint-Amarin,47.87494,7.0294
Saché,47.24707,0.54455
Ruillé-sur-Loir,47.75096,0.6205
Ruelle-sur-Touvre,45.67976,0.22925
Rueil-Malmaison,48.8765,2.18967
Rousson,44.19708,4.14475
Rousies,50.27346,4.00382
Roujan,43.50471,3.31063
Rinxent,50.80714,1.72899
Rieumes,43.41231,1.11763
Riec-sur-Belon,47.83333,-3.7
Renescure,50.72754,2.36801
Ranville,49.23071,-0.2556
Raimbeaucourt,50.43466,3.09333
Quillebeuf-sur-Seine,49.46934,0.52793
Pusignan,45.75558,5.06722
Puiseaux,48.09234,2.05967
Précy-sur-Oise,49.20779,2.37266
Pourrain,47.75615,3.41193
Pont-d'Ain,46.05583,5.33974
Pont-à-Marcq,50.52213,3.11441
Poitiers,46.58261,0.34348
Poissy,48.92902,2.04952
Poilly-lez-Gien,47.67724,2.59743
Plouvien,48.52956,-4.45233
Plougoumelen,47.65175,-2.91801
Plobannalec-Lesconil,47.81667,-4.21667
Plérin,48.53451,-2.76975
Pierrefontaine-les-Varans,47.21601,6.5403
Pélussin,45.41951,4.68365
Pellouailles-les-Vignes,47.52172,-0.43954
Pecquencourt,50.3785,3.21277
Parentis-en-Born,44.35163,-1.07213
Orry-la-Ville,49.13345,2.51139
Orléat,45.86059,3.42083
Orgueil,43.90618,1.41071
Orbec,49.01667,0.41667
Olemps,44.34638,2.5514
Oissery,49.07047,2.81819
Offemont,47.66278,6.87764
Œting,49.17291,6.91472
Noyon,49.58333,3.0
Nouvoitou,48.04081,-1.54671
Nouaillé-Maupertuis,46.50784,0.41395
Nort-sur-Erdre,47.4399,-1.49909
Neuvy,46.56191,3.29038
Nantes,47.21725,-1.55336
Mugron,43.74982,-0.75239
Moyaux,49.19511,0.35603
Moussan,43.23163,2.94946
Moult,49.11494,-0.16472
Morez,46.5254,6.02589
Montoir-de-Bretagne,47.32824,-2.14877
Montmoreau-Saint-Cybard,45.4,0.13333
Montfaucon-en-Velay,45.18561,4.31376
Montblanc,43.3959,3.36718
Montagnac,43.48094,3.48224
Moëlan-sur-Mer,47.81396,-3.62875
Médis,45.64299,-0.96522
Maurs,44.71065,2.19797
Mauguio,43.61692,4.00739
Martigné-Briand,47.23358,-0.42933
Marquette-en-Ostrevant,50.28333,3.26667
Marconne,50.37143,2.04669
Marans,46.30883,-0.99226
Manneville-sur-Risle,49.35173,0.54526
Malansac,47.67739,-2.29674
Magland,46.02064,6.62089
Lucéram,43.88293,7.35988
Lorquin,48.67102,6.99915
Longpont-sur-Orge,48.64171,2.29278
Locon,50.57029,2.66629
Locmiquélic,47.7251,-3.34066
Liré,47.34322,-1.16536
Lieurey,49.23019,0.49879
Le Vigan,44.74146,1.43884
Le Thuit-Signol,49.26487,0.9391
Les Rosiers-sur-Loire,47.3516,-0.22502
Les Essarts,46.77401,-1.22953
Le Pin,45.45582,5.50497
Le Perreux-sur-Marne,48.85,2.5
Le Pellerin,47.19863,-1.75466
Le Passage,44.2014,0.60347
Le Merlan,43.33875,5.40773
Le Croisic,47.29276,-2.51797
Le Conquet,48.36053,-4.77086
Le Brusquet,44.16126,6.30925
La Wantzenau,48.65786,7.83068
Laval-Pradel,44.20665,4.06591
Latour-Bas-Elne,42.60742,3.00153
La Suze-sur-Sarthe,47.89003,0.02525
Laruscade,45.10812,-0.34109
La Rochette,48.50882,2.66357
La Richardais,48.60685,-2.03574
Laragne-Montéglin,44.31667,5.81667
La Pouëze,47.55357,-0.80928
Lapeyrouse-Fossat,43.69973,1.51049
La Pacaudière,46.17879,3.86252
Landiras,44.56702,-0.41539
La Mure,44.90145,5.78874
Lahonce,43.4825,-1.39112
Lagarrigue,43.57697,2.27576
La Garde-Adhémar,44.39699,4.75759
Ballaison,46.29842,6.32765
Baguer-Pican,48.55252,-1.69927
Auriol,43.37161,5.6341
Audun-le-Roman,49.36977,5.89545
Aubord,43.75698,4.31301
Attichy,49.41121,3.04949
Artix,43.39667,-0.57256
Arthon,46.69361,1.69857
Arsac,44.99725,-0.68892
Arnières-sur-Iton,48.99678,1.10384
Arlanc,45.41389,3.72528
Anet,48.85642,1.43981
Andolsheim,48.06179,7.41637
Allaire,47.63726,-2.16514
Albert,50.00091,2.65096
Airvault,46.82698,-0.13791
Geneston,47.05639,-1.51139
Marseille 02,43.29664,5.37034
Marseille 05,43.29551,5.40055
Marseille 15,43.37224,5.35386
La Celle-Saint-Cloud,48.85029,2.14523
Lacanau,44.97914,-1.07957
Jouy-aux-Arches,49.06148,6.07925
Jonquerettes,43.94655,4.93286
Joinville,48.44363,5.14144
Jœuf,49.23333,6.01667
Jeanménil,48.3356,6.68769
Jassans-Riottier,45.98134,4.7614
Jarzé,47.55513,-0.2332
Ivry-la-Bataille,48.88333,1.45948
Isle,45.80461,1.22621
Innenheim,48.49659,7.57439
Hulluch,50.48961,2.81232
Hersin-Coupigny,50.44796,2.6494
Herry,47.21667,2.95385
Hermonville,49.33655,3.91011
Haute-Goulaine,47.19904,-1.43012
Hallencourt,49.99201,1.87649
Guyancourt,48.77334,2.07393
Guilers,48.42702,-4.55978
Guérigny,47.08703,3.20182
Groisy,46.01008,6.16983
Graveson,43.85051,4.77361
Gouesnou,48.45297,-4.46495
Gœulzin,50.31667,3.1
Gavray,48.91108,-1.35059
Gaillan-en-Médoc,45.32506,-0.95512
Fougerolles-du-Plessis,48.4747,-0.97354
Font-Romeu-Odeillo-Via,42.50552,2.04011
Fleurey-sur-Ouche,47.31182,4.85911
Feuchy,50.29439,2.84335
